 {"type":"FeatureCollection","features":[
{"type": "Feature","geometry":{"coordinates": [-0.084505,51.595717],"type":"Point"},"properties":{"Address":"N17 6HG","name":"Noel","hfrecnum":"8010","TimeAndDate":"Sat Dec 21 2024","Venue":"BWF Broadwater Farm","Category":"Portable radio","fldsize":"6.3","fldtype":"24","id":"4791","Outcome":"Unable to fix","id":"4791"}},
{"type": "Feature","geometry":{"coordinates": [-0.084505,51.595717],"type":"Point"},"properties":{"Address":"N176HG","name":"Moselle Community","hfrecnum":"8011","TimeAndDate":"Sat Dec 21 2024","Venue":"BWF Broadwater Farm","Category":"Blender","fldsize":"6.3","fldtype":"24","id":"4790","Outcome":"Beyond Repair","id":"4790"}},
{"type": "Feature","geometry":{"coordinates": [-0.084505,51.595717],"type":"Point"},"properties":{"Address":"N176HG","name":"Moselle Community","hfrecnum":"8012","TimeAndDate":"Sat Dec 21 2024","Venue":"BWF Broadwater Farm","Category":"Fan","fldsize":"6.3","fldtype":"24","id":"4789","Outcome":"fixed","id":"4789"}},
{"type": "Feature","geometry":{"coordinates": [-0.084505,51.595717],"type":"Point"},"properties":{"Address":"N176HG","name":"Moselle Community","hfrecnum":"8013","TimeAndDate":"Sat Dec 21 2024","Venue":"BWF Broadwater Farm","Category":"Small kitchen item","fldsize":"6.3","fldtype":"24","id":"4788","Outcome":"Beyond Repair","id":"4788"}},
{"type": "Feature","geometry":{"coordinates": [-0.122618,51.580833],"type":"Point"},"properties":{"Address":"N8 8PT","name":"Ashley","hfrecnum":"8014","TimeAndDate":"Sat Dec 21 2024","Venue":"BWF Broadwater Farm","Category":"Furniture","fldsize":"6.3","fldtype":"24","id":"4787","Outcome":"fixed","id":"4787"}},
{"type": "Feature","geometry":{"coordinates": [-0.109846,51.567487],"type":"Point"},"properties":{"Address":"N4 3AB","name":"Helena","hfrecnum":"8015","TimeAndDate":"Sat Dec 21 2024","Venue":"BWF Broadwater Farm","Category":"Lamp","fldsize":"6.3","fldtype":"24","id":"4786","Outcome":"diagnosed","id":"4786"}},
{"type": "Feature","geometry":{"coordinates": [-0.151496,51.594705],"type":"Point"},"properties":{"Address":"N10 1NL","name":"richard","hfrecnum":"8016","TimeAndDate":"Sat Dec 21 2024","Venue":"BWF Broadwater Farm","Category":"Toaster","fldsize":"6.3","fldtype":"24","id":"4785","Outcome":"Unable to fix","id":"4785"}},
{"type": "Feature","geometry":{"coordinates": [-0.075547,51.567856],"type":"Point"},"properties":{"Address":"N16 5xe","name":"Denise","hfrecnum":"8017","TimeAndDate":"Sat Dec 21 2024","Venue":"BWF Broadwater Farm","Category":"Laptop medium","fldsize":"6.3","fldtype":"24","id":"4784","Outcome":"Unable to fix","id":"4784"}},
{"type": "Feature","geometry":{"coordinates": [-0.130192,51.600518],"type":"Point"},"properties":{"Address":"N22 7xw","name":"John","hfrecnum":"8018","TimeAndDate":"Sat Dec 21 2024","Venue":"BWF Broadwater Farm","Category":"Portable radio","fldsize":"6.3","fldtype":"24","id":"4783","Outcome":"fixed","id":"4783"}},
{"type": "Feature","geometry":{"coordinates": [-0.09437,51.594601],"type":"Point"},"properties":{"Address":"N22 6QX","name":"Nik","hfrecnum":"8019","TimeAndDate":"Sat Dec 21 2024","Venue":"BWF Broadwater Farm","Category":"Kettle","fldsize":"6.3","fldtype":"24","id":"4782","Outcome":"Unable to fix","id":"4782"}},
{"type": "Feature","geometry":{"coordinates": [-0.084505,51.595717],"type":"Point"},"properties":{"Address":"N17 6HG","name":"Noel","hfrecnum":"7910","TimeAndDate":"Sat Dec 14 2024","Venue":"CRC Campsbourne","Category":"Mobile","fldsize":"6.3","fldtype":"24","id":"4774","Outcome":"Not in the database","id":"4774"}},
{"type": "Feature","geometry":{"coordinates": [-0.118635,51.600657],"type":"Point"},"properties":{"Address":"N22 7DA","name":"Lou","hfrecnum":"7912","TimeAndDate":"Sat Dec 14 2024","Venue":"CRC Campsbourne","Category":"Mobile","fldsize":"6.3","fldtype":"24","id":"4772","Outcome":"diagnosed","id":"4772"}},
{"type": "Feature","geometry":{"coordinates": [-0.133088,51.554892],"type":"Point"},"properties":{"Address":"N7 0rb","name":"Assia","hfrecnum":"7913","TimeAndDate":"Sat Dec 14 2024","Venue":"CRC Campsbourne","Category":"Suitcase","fldsize":"6.3","fldtype":"24","id":"4771","Outcome":"fixed","id":"4771"}},
{"type": "Feature","geometry":{"coordinates": [-0.118509,51.589463],"type":"Point"},"properties":{"Address":"N87fp","name":"Campsbourne community collective","hfrecnum":"7914","TimeAndDate":"Sat Dec 14 2024","Venue":"CRC Campsbourne","Category":"Bicycle","fldsize":"6.3","fldtype":"24","id":"4770","Outcome":"interim retry","id":"4770"}},
{"type": "Feature","geometry":{"coordinates": [-0.12296,51.589621],"type":"Point"},"properties":{"Address":"N8 7QY","name":"Helena","hfrecnum":"7915","TimeAndDate":"Sat Dec 14 2024","Venue":"CRC Campsbourne","Category":"Lamp","fldsize":"6.3","fldtype":"24","id":"4769","Outcome":"fixed","id":"4769"}},
{"type": "Feature","geometry":{"coordinates": [-0.12296,51.589621],"type":"Point"},"properties":{"Address":"N8 7QY","name":"Helena","hfrecnum":"7916","TimeAndDate":"Sat Dec 14 2024","Venue":"CRC Campsbourne","Category":"Vacuum","fldsize":"6.3","fldtype":"24","id":"4768","Outcome":"partial fix","id":"4768"}},
{"type": "Feature","geometry":{"coordinates": [-0.102161,51.577749],"type":"Point"},"properties":{"Address":"N4 1aa","name":"Anuj","hfrecnum":"7917","TimeAndDate":"Sat Dec 14 2024","Venue":"CRC Campsbourne","Category":"Portable radio","fldsize":"6.3","fldtype":"24","id":"4767","Outcome":"fixed","id":"4767"}},
{"type": "Feature","geometry":{"coordinates": [-0.121616,51.589728],"type":"Point"},"properties":{"Address":"N8 7AD","name":"Morten","hfrecnum":"7918","TimeAndDate":"Sat Dec 14 2024","Venue":"CRC Campsbourne","Category":"Bicycle","fldsize":"6.3","fldtype":"24","id":"4766","Outcome":"interim retry","id":"4766"}},
{"type": "Feature","geometry":{"coordinates": [-0.140385,51.597815],"type":"Point"},"properties":{"Address":"N10 2AD","name":"Alex","hfrecnum":"7919","TimeAndDate":"Sat Dec 14 2024","Venue":"CRC Campsbourne","Category":"Mobile","fldsize":"6.3","fldtype":"24","id":"4765","Outcome":"Not in the database","id":"4765"}},
{"type": "Feature","geometry":{"coordinates": [-0.128129,51.588184],"type":"Point"},"properties":{"Address":"N87RT","name":"Richard","hfrecnum":"7920","TimeAndDate":"Sat Dec 14 2024","Venue":"CRC Campsbourne","Category":"Fan","fldsize":"6.3","fldtype":"24","id":"4764","Outcome":"diagnosed","id":"4764"}},
{"type": "Feature","geometry":{"coordinates": [-0.09437,51.594601],"type":"Point"},"properties":{"Address":"N22 6QX","name":"Ade","hfrecnum":"7921","TimeAndDate":"Sat Dec 14 2024","Venue":"CRC Campsbourne","Category":"Toaster","fldsize":"6.3","fldtype":"24","id":"4763","Outcome":"diagnosed","id":"4763"}},
{"type": "Feature","geometry":{"coordinates": [-0.09437,51.594601],"type":"Point"},"properties":{"Address":"N22 6QX","name":"Nik","hfrecnum":"7922","TimeAndDate":"Sat Dec 14 2024","Venue":"CRC Campsbourne","Category":"Kettle","fldsize":"6.3","fldtype":"24","id":"4762","Outcome":"diagnosed","id":"4762"}},
{"type": "Feature","geometry":{"coordinates": [-0.116909,51.597006],"type":"Point"},"properties":{"Address":"N22 7SX","name":"Natalie","hfrecnum":"7923","TimeAndDate":"Sat Dec 14 2024","Venue":"CRC Campsbourne","Category":"Small kitchen item","fldsize":"6.3","fldtype":"24","id":"4761","Outcome":"Beyond Repair","id":"4761"}},
{"type": "Feature","geometry":{"coordinates": [-0.109708,51.541955],"type":"Point"},"properties":{"Address":"N1 1JU","name":"Alexander","hfrecnum":"7811","TimeAndDate":"Sun Dec 08 2024","Venue":"AG Turnpike Lane","Category":"Lamp","fldsize":"6.3","fldtype":"24","id":"4754","Outcome":"fixed","id":"4754"}},
{"type": "Feature","geometry":{"coordinates": [-0.1229,51.588706],"type":"Point"},"properties":{"Address":"N87QU","name":"Hana","hfrecnum":"7812","TimeAndDate":"Sun Dec 08 2024","Venue":"AG Turnpike Lane","Category":"Coffee Maker","fldsize":"6.3","fldtype":"24","id":"4753","Outcome":"fixed","id":"4753"}},
{"type": "Feature","geometry":{"coordinates": [-0.142036,51.573918],"type":"Point"},"properties":{"Address":"N6 5BN","name":"Holly","hfrecnum":"7813","TimeAndDate":"Sun Dec 08 2024","Venue":"AG Turnpike Lane","Category":"Lamp","fldsize":"6.3","fldtype":"24","id":"4752","Outcome":"fixed","id":"4752"}},
{"type": "Feature","geometry":{"coordinates": [-0.124283,51.591237],"type":"Point"},"properties":{"Address":"N8 7LN","name":"Cathy","hfrecnum":"7814","TimeAndDate":"Sun Dec 08 2024","Venue":"AG Turnpike Lane","Category":"Lamp","fldsize":"6.3","fldtype":"24","id":"4751","Outcome":"Unable to fix","id":"4751"}},
{"type": "Feature","geometry":{"coordinates": [-0.103837,51.582569],"type":"Point"},"properties":{"Address":"N8 0BS","name":"Caroline","hfrecnum":"7815","TimeAndDate":"Sun Dec 08 2024","Venue":"AG Turnpike Lane","Category":"Small home electrical","fldsize":"6.3","fldtype":"24","id":"4750","Outcome":"Unable to fix","id":"4750"}},
{"type": "Feature","geometry":{"coordinates": [-0.111587,51.625408],"type":"Point"},"properties":{"Address":"N13 4BN","name":"Suresh","hfrecnum":"7816","TimeAndDate":"Sun Dec 08 2024","Venue":"AG Turnpike Lane","Category":"Clothing/textile","fldsize":"6.3","fldtype":"24","id":"4749","Outcome":"partial fix","id":"4749"}},
{"type": "Feature","geometry":{"coordinates": [-0.111587,51.625408],"type":"Point"},"properties":{"Address":"N134BN","name":"Suresh","hfrecnum":"7817","TimeAndDate":"Sun Dec 08 2024","Venue":"AG Turnpike Lane","Category":"Aircon/Dehumidifier","fldsize":"6.3","fldtype":"24","id":"4748","Outcome":"Unable to fix","id":"4748"}},
{"type": "Feature","geometry":{"coordinates": [-0.098303,51.591337],"type":"Point"},"properties":{"Address":"N22 6AA","name":"Kerry-Ann","hfrecnum":"7818","TimeAndDate":"Sun Dec 08 2024","Venue":"AG Turnpike Lane","Category":"Lamp","fldsize":"6.3","fldtype":"24","id":"4747","Outcome":"Unable to fix","id":"4747"}},
{"type": "Feature","geometry":{"coordinates": [-0.094661,51.590748],"type":"Point"},"properties":{"Address":"N17 6AP","name":"Kumari","hfrecnum":"7819","TimeAndDate":"Sun Dec 08 2024","Venue":"AG Turnpike Lane","Category":"none yet","fldsize":"6.3","fldtype":"24","id":"4746","Outcome":"Self-repair","id":"4746"}},
{"type": "Feature","geometry":{"coordinates": [-0.105364,51.589665],"type":"Point"},"properties":{"Address":"","name":"Donna","hfrecnum":"7820","TimeAndDate":"Sun Dec 08 2024","Venue":"AG Turnpike Lane","Category":"Small kitchen item","fldsize":"6.3","fldtype":"24","id":"4745","Outcome":"Unable to fix","id":"4745"}},
{"type": "Feature","geometry":{"coordinates": [-0.105364,51.589665],"type":"Point"},"properties":{"Address":"N8 0EP","name":"internal","hfrecnum":"7821","TimeAndDate":"Sun Dec 08 2024","Venue":"AG Turnpike Lane","Category":"PC Accessory","fldsize":"6.3","fldtype":"24","id":"4744","Outcome":"Beyond Repair","id":"4744"}},
{"type": "Feature","geometry":{"coordinates": [-0.105364,51.589665],"type":"Point"},"properties":{"Address":"N8 0EP","name":"","hfrecnum":"7822","TimeAndDate":"Sun Dec 08 2024","Venue":"AG Turnpike Lane","Category":"none yet","fldsize":"6.3","fldtype":"24","id":"4743","Outcome":"diagnosed","id":"4743"}},
{"type": "Feature","geometry":{"coordinates": [-0.087004,51.592251],"type":"Point"},"properties":{"Address":"N17 6NU","name":"Doris","hfrecnum":"7710","TimeAndDate":"Sun Dec 01 2024","Venue":"LH Lordship Rec Hub","Category":"Blender","fldsize":"6.3","fldtype":"24","id":"4733","Outcome":"fixed","id":"4733"}},
{"type": "Feature","geometry":{"coordinates": [-0.103554,51.581036],"type":"Point"},"properties":{"Address":"N4 1AT","name":"Henry","hfrecnum":"7711","TimeAndDate":"Sun Dec 01 2024","Venue":"LH Lordship Rec Hub","Category":"Small kitchen item","fldsize":"6.3","fldtype":"24","id":"4732","Outcome":"fixed","id":"4732"}},
{"type": "Feature","geometry":{"coordinates": [-0.059593,51.59993],"type":"Point"},"properties":{"Address":"N170NL","name":"Lucinda","hfrecnum":"7712","TimeAndDate":"Sun Dec 01 2024","Venue":"LH Lordship Rec Hub","Category":"Vacuum","fldsize":"6.3","fldtype":"24","id":"4731","Outcome":"diagnosed","id":"4731"}},
{"type": "Feature","geometry":{"coordinates": [-0.079638,51.581117],"type":"Point"},"properties":{"Address":"N155HP","name":"Mayur","hfrecnum":"7713","TimeAndDate":"Sun Dec 01 2024","Venue":"LH Lordship Rec Hub","Category":"Blender","fldsize":"6.3","fldtype":"24","id":"4730","Outcome":"fixed","id":"4730"}},
{"type": "Feature","geometry":{"coordinates": [-0.093702,51.584764],"type":"Point"},"properties":{"Address":"N153rt","name":"Christine","hfrecnum":"7714","TimeAndDate":"Sun Dec 01 2024","Venue":"LH Lordship Rec Hub","Category":"Hair & Beauty item","fldsize":"6.3","fldtype":"24","id":"4729","Outcome":"Unable to fix","id":"4729"}},
{"type": "Feature","geometry":{"coordinates": [-0.105082,51.5849],"type":"Point"},"properties":{"Address":"N8 0NG","name":"Macu","hfrecnum":"7715","TimeAndDate":"Sun Dec 01 2024","Venue":"LH Lordship Rec Hub","Category":"Toaster","fldsize":"6.3","fldtype":"24","id":"4728","Outcome":"Unable to fix","id":"4728"}},
{"type": "Feature","geometry":{"coordinates": [-0.101648,51.584245],"type":"Point"},"properties":{"Address":"N8 0AG","name":"heather","hfrecnum":"7716","TimeAndDate":"Sun Dec 01 2024","Venue":"LH Lordship Rec Hub","Category":"Kettle","fldsize":"6.3","fldtype":"24","id":"4727","Outcome":"Unable to fix","id":"4727"}},
{"type": "Feature","geometry":{"coordinates": [-0.111183,51.593029],"type":"Point"},"properties":{"Address":"n8 0jx","name":"takatomo","hfrecnum":"7717","TimeAndDate":"Sun Dec 01 2024","Venue":"LH Lordship Rec Hub","Category":"Hair & Beauty item","fldsize":"6.3","fldtype":"24","id":"4726","Outcome":"Beyond Repair","id":"4726"}},
{"type": "Feature","geometry":{"coordinates": [-0.111183,51.593029],"type":"Point"},"properties":{"Address":"n8 0jx","name":"takatomo","hfrecnum":"7718","TimeAndDate":"Sun Dec 01 2024","Venue":"LH Lordship Rec Hub","Category":"Decorative or safety lights","fldsize":"6.3","fldtype":"24","id":"4725","Outcome":"fixed","id":"4725"}},
{"type": "Feature","geometry":{"coordinates": [-0.111183,51.593029],"type":"Point"},"properties":{"Address":"n8 0jx","name":"takatomo","hfrecnum":"7719","TimeAndDate":"Sun Dec 01 2024","Venue":"LH Lordship Rec Hub","Category":"PC Accessory","fldsize":"6.3","fldtype":"24","id":"4724","Outcome":"fixed","id":"4724"}},
{"type": "Feature","geometry":{"coordinates": [-0.121483,51.588395],"type":"Point"},"properties":{"Address":"N8 7PJ","name":"Andrew","hfrecnum":"7720","TimeAndDate":"Sun Dec 01 2024","Venue":"LH Lordship Rec Hub","Category":"Portable radio","fldsize":"6.3","fldtype":"24","id":"4723","Outcome":"diagnosed","id":"4723"}},
{"type": "Feature","geometry":{"coordinates": [-0.097823,51.600412],"type":"Point"},"properties":{"Address":"N22 5EA","name":"Cristina","hfrecnum":"7721","TimeAndDate":"Sun Dec 01 2024","Venue":"LH Lordship Rec Hub","Category":"Hi-Fi separates","fldsize":"6.3","fldtype":"24","id":"4722","Outcome":"diagnosed","id":"4722"}},
{"type": "Feature","geometry":{"coordinates": [-0.087004,51.592251],"type":"Point"},"properties":{"Address":"N17 6NU","name":"Christine","hfrecnum":"7722","TimeAndDate":"Sun Dec 01 2024","Venue":"LH Lordship Rec Hub","Category":"Toaster","fldsize":"6.3","fldtype":"24","id":"4721","Outcome":"partial fix","id":"4721"}},
{"type": "Feature","geometry":{"coordinates": [-0.087004,51.592251],"type":"Point"},"properties":{"Address":"N17 6NU","name":"Aurea","hfrecnum":"7723","TimeAndDate":"Sun Dec 01 2024","Venue":"LH Lordship Rec Hub","Category":"Misc (non-EEE)","fldsize":"6.3","fldtype":"24","id":"4720","Outcome":"fixed","id":"4720"}},
{"type": "Feature","geometry":{"coordinates": [-0.124846,51.590101],"type":"Point"},"properties":{"Address":"N8 7LY","name":"internal","hfrecnum":"7610","TimeAndDate":"Sat Nov 16 2024","Venue":"BWF Broadwater Farm","Category":"Sewing machine","fldsize":"6.3","fldtype":"24","id":"4710","Outcome":"diagnosed","id":"4710"}},
{"type": "Feature","geometry":{"coordinates": [-0.103214,51.594051],"type":"Point"},"properties":{"Address":"N22 6pp","name":"Fatna","hfrecnum":"7611","TimeAndDate":"Sat Nov 16 2024","Venue":"BWF Broadwater Farm","Category":"DSLR / Video Camera","fldsize":"6.3","fldtype":"24","id":"4709","Outcome":"fixed","id":"4709"}},
{"type": "Feature","geometry":{"coordinates": [-0.079197,51.563419],"type":"Point"},"properties":{"Address":"N16 0aj","name":"Lorna","hfrecnum":"7612","TimeAndDate":"Sat Nov 16 2024","Venue":"BWF Broadwater Farm","Category":"none yet","fldsize":"6.3","fldtype":"24","id":"4708","Outcome":"fixed","id":"4708"}},
{"type": "Feature","geometry":{"coordinates": [-0.077791,51.589989],"type":"Point"},"properties":{"Address":"N17 6TT","name":"Lisa","hfrecnum":"7613","TimeAndDate":"Sat Nov 16 2024","Venue":"BWF Broadwater Farm","Category":"Bathroom Elec","fldsize":"6.3","fldtype":"24","id":"4707","Outcome":"Unable to fix","id":"4707"}},
{"type": "Feature","geometry":{"coordinates": [-0.074142,51.592553],"type":"Point"},"properties":{"Address":"n17 6yj","name":"Coral","hfrecnum":"7614","TimeAndDate":"Sat Nov 16 2024","Venue":"BWF Broadwater Farm","Category":"Hi-Fi separates","fldsize":"6.3","fldtype":"24","id":"4706","Outcome":"fixed","id":"4706"}},
{"type": "Feature","geometry":{"coordinates": [-0.074142,51.592553],"type":"Point"},"properties":{"Address":"n17 6yj","name":"Coral","hfrecnum":"7615","TimeAndDate":"Sat Nov 16 2024","Venue":"BWF Broadwater Farm","Category":"Hi-Fi separates","fldsize":"6.3","fldtype":"24","id":"4705","Outcome":"fixed","id":"4705"}},
{"type": "Feature","geometry":{"coordinates": [-0.0776,51.591018],"type":"Point"},"properties":{"Address":"N17 6TU","name":"Finlay","hfrecnum":"7616","TimeAndDate":"Sat Nov 16 2024","Venue":"BWF Broadwater Farm","Category":"Aircon/Dehumidifier","fldsize":"6.3","fldtype":"24","id":"4704","Outcome":"fixed","id":"4704"}},
{"type": "Feature","geometry":{"coordinates": [-0.100401,51.601365],"type":"Point"},"properties":{"Address":"N225QB","name":"Katherine","hfrecnum":"7617","TimeAndDate":"Sat Nov 16 2024","Venue":"BWF Broadwater Farm","Category":"Bathroom Elec","fldsize":"6.3","fldtype":"24","id":"4703","Outcome":"Unable to fix","id":"4703"}},
{"type": "Feature","geometry":{"coordinates": [-0.100401,51.601365],"type":"Point"},"properties":{"Address":"N225QB","name":"Katherine","hfrecnum":"7618","TimeAndDate":"Sat Nov 16 2024","Venue":"BWF Broadwater Farm","Category":"Small home electrical","fldsize":"6.3","fldtype":"24","id":"4702","Outcome":"diagnosed","id":"4702"}},
{"type": "Feature","geometry":{"coordinates": [-0.09218,51.60068],"type":"Point"},"properties":{"Address":"n17 7hb","name":"mariam","hfrecnum":"7619","TimeAndDate":"Sat Nov 16 2024","Venue":"BWF Broadwater Farm","Category":"Bicycle","fldsize":"6.3","fldtype":"24","id":"4701","Outcome":"diagnosed","id":"4701"}},
{"type": "Feature","geometry":{"coordinates": [-0.126668,51.580886],"type":"Point"},"properties":{"Address":"N8 8TJ","name":"Sharon","hfrecnum":"7510","TimeAndDate":"Sun Nov 10 2024","Venue":"AG Turnpike Lane","Category":"Hi-Fi separates","fldsize":"6.3","fldtype":"24","id":"4691","Outcome":"fixed","id":"4691"}},
{"type": "Feature","geometry":{"coordinates": [-0.098055,51.581046],"type":"Point"},"properties":{"Address":"N4 1lb","name":"Alexandra","hfrecnum":"7511","TimeAndDate":"Sun Nov 10 2024","Venue":"AG Turnpike Lane","Category":"Toaster","fldsize":"6.3","fldtype":"24","id":"4690","Outcome":"Self-repair","id":"4690"}},
{"type": "Feature","geometry":{"coordinates": [-0.107075,51.587316],"type":"Point"},"properties":{"Address":"N8 0ht","name":"Elaine","hfrecnum":"7512","TimeAndDate":"Sun Nov 10 2024","Venue":"AG Turnpike Lane","Category":"Sewing machine","fldsize":"6.3","fldtype":"24","id":"4689","Outcome":"fixed","id":"4689"}},
{"type": "Feature","geometry":{"coordinates": [-0.099965,51.587488],"type":"Point"},"properties":{"Address":"N15 3DD","name":"Adham","hfrecnum":"7513","TimeAndDate":"Sun Nov 10 2024","Venue":"AG Turnpike Lane","Category":"Hi-Fi integrated","fldsize":"6.3","fldtype":"24","id":"4688","Outcome":"diagnosed","id":"4688"}},
{"type": "Feature","geometry":{"coordinates": [-0.094718,51.598005],"type":"Point"},"properties":{"Address":"N22 5dj","name":"Christelle","hfrecnum":"7514","TimeAndDate":"Sun Nov 10 2024","Venue":"AG Turnpike Lane","Category":"Blender","fldsize":"6.3","fldtype":"24","id":"4687","Outcome":"Beyond Repair","id":"4687"}},
{"type": "Feature","geometry":{"coordinates": [-0.096237,51.593878],"type":"Point"},"properties":{"Address":"N22 6QS","name":"Jade","hfrecnum":"7515","TimeAndDate":"Sun Nov 10 2024","Venue":"AG Turnpike Lane","Category":"Blender","fldsize":"6.3","fldtype":"24","id":"4686","Outcome":"fixed","id":"4686"}},
{"type": "Feature","geometry":{"coordinates": [-0.114396,51.607127],"type":"Point"},"properties":{"Address":"N22 8RF","name":"Gustavo","hfrecnum":"7516","TimeAndDate":"Sun Nov 10 2024","Venue":"AG Turnpike Lane","Category":"Fan Heater","fldsize":"6.3","fldtype":"24","id":"4685","Outcome":"Self-repair","id":"4685"}},
{"type": "Feature","geometry":{"coordinates": [-0.117976,51.578516],"type":"Point"},"properties":{"Address":"N8 9HR","name":"Erica","hfrecnum":"7517","TimeAndDate":"Sun Nov 10 2024","Venue":"AG Turnpike Lane","Category":"Portable radio","fldsize":"6.3","fldtype":"24","id":"4684","Outcome":"fixed","id":"4684"}},
{"type": "Feature","geometry":{"coordinates": [-0.015877,51.626257],"type":"Point"},"properties":{"Address":"E4 8BS","name":"Rafiq","hfrecnum":"7518","TimeAndDate":"Sun Nov 10 2024","Venue":"AG Turnpike Lane","Category":"Printer/scanner","fldsize":"6.3","fldtype":"24","id":"4683","Outcome":"Beyond Repair","id":"4683"}},
{"type": "Feature","geometry":{"coordinates": [-0.015877,51.626257],"type":"Point"},"properties":{"Address":"E4 8BS","name":"Rafiq","hfrecnum":"7519","TimeAndDate":"Sun Nov 10 2024","Venue":"AG Turnpike Lane","Category":"Portable radio","fldsize":"6.3","fldtype":"24","id":"4682","Outcome":"Beyond Repair","id":"4682"}},
{"type": "Feature","geometry":{"coordinates": [-0.064134,51.596354],"type":"Point"},"properties":{"Address":"N17 9RS","name":"Maud","hfrecnum":"7520","TimeAndDate":"Sun Nov 10 2024","Venue":"AG Turnpike Lane","Category":"Small kitchen item","fldsize":"6.3","fldtype":"24","id":"4681","Outcome":"fixed","id":"4681"}},
{"type": "Feature","geometry":{"coordinates": [-0.084505,51.595717],"type":"Point"},"properties":{"Address":"N17 6HG","name":"Filiz","hfrecnum":"7410","TimeAndDate":"Sat Nov 09 2024","Venue":"CRC Campsbourne","Category":"Blender","fldsize":"6.3","fldtype":"24","id":"4672","Outcome":"Beyond Repair","id":"4672"}},
{"type": "Feature","geometry":{"coordinates": [-0.126415,51.589146],"type":"Point"},"properties":{"Address":"N8 7ND","name":"Jude","hfrecnum":"7411","TimeAndDate":"Sat Nov 09 2024","Venue":"CRC Campsbourne","Category":"Lamp","fldsize":"6.3","fldtype":"24","id":"4671","Outcome":"fixed","id":"4671"}},
{"type": "Feature","geometry":{"coordinates": [-0.121616,51.589728],"type":"Point"},"properties":{"Address":"N8 7AD","name":"Steve","hfrecnum":"7412","TimeAndDate":"Sat Nov 09 2024","Venue":"CRC Campsbourne","Category":"Small kitchen item","fldsize":"6.3","fldtype":"24","id":"4670","Outcome":"diagnosed","id":"4670"}},
{"type": "Feature","geometry":{"coordinates": [-0.119059,51.590128],"type":"Point"},"properties":{"Address":"N8 7bd","name":"Tonie","hfrecnum":"7413","TimeAndDate":"Sat Nov 09 2024","Venue":"CRC Campsbourne","Category":"Sewing machine","fldsize":"6.3","fldtype":"24","id":"4669","Outcome":"diagnosed","id":"4669"}},
{"type": "Feature","geometry":{"coordinates": [-0.124917,51.589502],"type":"Point"},"properties":{"Address":"N8 7NE","name":"Jo-an","hfrecnum":"7414","TimeAndDate":"Sat Nov 09 2024","Venue":"CRC Campsbourne","Category":"none yet","fldsize":"6.3","fldtype":"24","id":"4668","Outcome":"Unable to fix","id":"4668"}},
{"type": "Feature","geometry":{"coordinates": [-0.123653,51.588286],"type":"Point"},"properties":{"Address":"N8 7RA","name":"Emerson","hfrecnum":"7415","TimeAndDate":"Sat Nov 09 2024","Venue":"CRC Campsbourne","Category":"Vacuum","fldsize":"6.3","fldtype":"24","id":"4667","Outcome":"fixed","id":"4667"}},
{"type": "Feature","geometry":{"coordinates": [-0.084505,51.595717],"type":"Point"},"properties":{"Address":"N17 6HG","name":"lee","hfrecnum":"7416","TimeAndDate":"Sat Nov 09 2024","Venue":"CRC Campsbourne","Category":"Bicycle","fldsize":"6.3","fldtype":"24","id":"4666","Outcome":"Unable to fix","id":"4666"}},
{"type": "Feature","geometry":{"coordinates": [-0.126415,51.589146],"type":"Point"},"properties":{"Address":"N8 7ND","name":"Jude","hfrecnum":"7417","TimeAndDate":"Sat Nov 09 2024","Venue":"CRC Campsbourne","Category":"Hhold non-elec","fldsize":"6.3","fldtype":"24","id":"4665","Outcome":"Self-repair","id":"4665"}},
{"type": "Feature","geometry":{"coordinates": [-0.121616,51.589728],"type":"Point"},"properties":{"Address":"N8 7AD","name":"Anna","hfrecnum":"7418","TimeAndDate":"Sat Nov 09 2024","Venue":"CRC Campsbourne","Category":"Lamp","fldsize":"6.3","fldtype":"24","id":"4664","Outcome":"diagnosed","id":"4664"}},
{"type": "Feature","geometry":{"coordinates": [-0.121616,51.589728],"type":"Point"},"properties":{"Address":"N8 7AD","name":"Paulette","hfrecnum":"7419","TimeAndDate":"Sat Nov 09 2024","Venue":"CRC Campsbourne","Category":"Vacuum","fldsize":"6.3","fldtype":"24","id":"4663","Outcome":"fixed","id":"4663"}},
{"type": "Feature","geometry":{"coordinates": [-0.124846,51.590101],"type":"Point"},"properties":{"Address":"N8 7LY","name":"Janet","hfrecnum":"7420","TimeAndDate":"Sat Nov 09 2024","Venue":"CRC Campsbourne","Category":"Sewing machine","fldsize":"6.3","fldtype":"24","id":"4662","Outcome":"Beyond Repair","id":"4662"}},
{"type": "Feature","geometry":{"coordinates": [-0.084505,51.595717],"type":"Point"},"properties":{"Address":"N17 6HG","name":"Jay","hfrecnum":"7310","TimeAndDate":"Sat Nov 02 2024","Venue":"LH Lordship Rec Hub","Category":"Sewing machine","fldsize":"6.3","fldtype":"24","id":"4652","Outcome":"fixed","id":"4652"}},
{"type": "Feature","geometry":{"coordinates": [-0.079197,51.563419],"type":"Point"},"properties":{"Address":"N16  0AJ","name":"Lorna","hfrecnum":"7315","TimeAndDate":"Sat Nov 02 2024","Venue":"LH Lordship Rec Hub","Category":"Vacuum","fldsize":"6.3","fldtype":"24","id":"4647","Outcome":"diagnosed","id":"4647"}},
{"type": "Feature","geometry":{"coordinates": [-0.068724,51.564048],"type":"Point"},"properties":{"Address":"N16 7AB","name":"Yasmin","hfrecnum":"7317","TimeAndDate":"Sat Nov 02 2024","Venue":"LH Lordship Rec Hub","Category":"Kettle","fldsize":"6.3","fldtype":"24","id":"4645","Outcome":"fixed","id":"4645"}},
{"type": "Feature","geometry":{"coordinates": [-0.079971,51.574502],"type":"Point"},"properties":{"Address":"n16 5dl","name":"mahandra","hfrecnum":"7318","TimeAndDate":"Sat Nov 02 2024","Venue":"LH Lordship Rec Hub","Category":"Laptop medium","fldsize":"6.3","fldtype":"24","id":"4644","Outcome":"diagnosed","id":"4644"}},
{"type": "Feature","geometry":{"coordinates": [-0.083081,51.589768],"type":"Point"},"properties":{"Address":"N17 6DB","name":"Tetiana","hfrecnum":"7319","TimeAndDate":"Sat Nov 02 2024","Venue":"LH Lordship Rec Hub","Category":"Toy","fldsize":"6.3","fldtype":"24","id":"4643","Outcome":"fixed","id":"4643"}},
{"type": "Feature","geometry":{"coordinates": [-0.080831,51.592197],"type":"Point"},"properties":{"Address":"N17 6BZ","name":"Chloe","hfrecnum":"7320","TimeAndDate":"Sat Nov 02 2024","Venue":"LH Lordship Rec Hub","Category":"Clothing/textile","fldsize":"6.3","fldtype":"24","id":"4642","Outcome":"fixed","id":"4642"}},
{"type": "Feature","geometry":{"coordinates": [-0.126046,51.60163],"type":"Point"},"properties":{"Address":"N22 7RX","name":"Laura","hfrecnum":"7321","TimeAndDate":"Sat Nov 02 2024","Venue":"LH Lordship Rec Hub","Category":"Small kitchen item","fldsize":"6.3","fldtype":"24","id":"4641","Outcome":"fixed","id":"4641"}},
{"type": "Feature","geometry":{"coordinates": [-0.134863,51.554533],"type":"Point"},"properties":{"Address":"N7 0RH","name":"Assia","hfrecnum":"7322","TimeAndDate":"Sat Nov 02 2024","Venue":"LH Lordship Rec Hub","Category":"Vacuum","fldsize":"6.3","fldtype":"24","id":"4640","Outcome":"fixed","id":"4640"}},
{"type": "Feature","geometry":{"coordinates": [-0.102917,51.596672],"type":"Point"},"properties":{"Address":"N22 6PD","name":"Pam","hfrecnum":"7323","TimeAndDate":"Sat Nov 02 2024","Venue":"LH Lordship Rec Hub","Category":"Suitcase","fldsize":"6.3","fldtype":"24","id":"4639","Outcome":"partial fix","id":"4639"}},
{"type": "Feature","geometry":{"coordinates": [-0.077673,51.594843],"type":"Point"},"properties":{"Address":"N17 6HJ","name":"Marie","hfrecnum":"7324","TimeAndDate":"Sat Nov 02 2024","Venue":"LH Lordship Rec Hub","Category":"Aircon/Dehumidifier","fldsize":"6.3","fldtype":"24","id":"4638","Outcome":"Unable to fix","id":"4638"}},
{"type": "Feature","geometry":{"coordinates": [-0.097586,51.594671],"type":"Point"},"properties":{"Address":"N22 6SE","name":"Dipo","hfrecnum":"7326","TimeAndDate":"Sat Nov 02 2024","Venue":"LH Lordship Rec Hub","Category":"Blender","fldsize":"6.3","fldtype":"24","id":"4636","Outcome":"fixed","id":"4636"}},
{"type": "Feature","geometry":{"coordinates": [-0.084505,51.595717],"type":"Point"},"properties":{"Address":"","name":"","hfrecnum":"7210","TimeAndDate":"Sat Oct 19 2024","Venue":"BWF Broadwater Farm","Category":"Iron","fldsize":"6.3","fldtype":"24","id":"4632","Outcome":"Beyond Repair","id":"4632"}},
{"type": "Feature","geometry":{"coordinates": [-0.057938,51.583212],"type":"Point"},"properties":{"Address":"N17 9PW","name":"Quentin","hfrecnum":"7211","TimeAndDate":"Sat Oct 19 2024","Venue":"BWF Broadwater Farm","Category":"Tool (non-EEE)","fldsize":"6.3","fldtype":"24","id":"4631","Outcome":"fixed","id":"4631"}},
{"type": "Feature","geometry":{"coordinates": [-0.057938,51.583212],"type":"Point"},"properties":{"Address":"N17 9PW","name":"Quentin","hfrecnum":"7212","TimeAndDate":"Sat Oct 19 2024","Venue":"BWF Broadwater Farm","Category":"Tool (non-EEE)","fldsize":"6.3","fldtype":"24","id":"4630","Outcome":"diagnosed","id":"4630"}},
{"type": "Feature","geometry":{"coordinates": [-0.116866,51.443943],"type":"Point"},"properties":{"Address":"SW23QR","name":"Sam","hfrecnum":"7213","TimeAndDate":"Sat Oct 19 2024","Venue":"BWF Broadwater Farm","Category":"Blender","fldsize":"6.3","fldtype":"24","id":"4629","Outcome":"fixed","id":"4629"}},
{"type": "Feature","geometry":{"coordinates": [-0.115983,51.577921],"type":"Point"},"properties":{"Address":"N8 9SA","name":"Carmina","hfrecnum":"7214","TimeAndDate":"Sat Oct 19 2024","Venue":"BWF Broadwater Farm","Category":"Lamp","fldsize":"6.3","fldtype":"24","id":"4628","Outcome":"partial fix","id":"4628"}},
{"type": "Feature","geometry":{"coordinates": [-0.097329,51.597023],"type":"Point"},"properties":{"Address":"N22 6JN","name":"Chrystine","hfrecnum":"7215","TimeAndDate":"Sat Oct 19 2024","Venue":"BWF Broadwater Farm","Category":"Laptop medium","fldsize":"6.3","fldtype":"24","id":"4627","Outcome":"diagnosed","id":"4627"}},
{"type": "Feature","geometry":{"coordinates": [-0.084505,51.595717],"type":"Point"},"properties":{"Address":"n17 6HG","name":"Jay","hfrecnum":"7216","TimeAndDate":"Sat Oct 19 2024","Venue":"BWF Broadwater Farm","Category":"Small kitchen item","fldsize":"6.3","fldtype":"24","id":"4626","Outcome":"Unable to fix","id":"4626"}},
{"type": "Feature","geometry":{"coordinates": [-0.099244,51.589988],"type":"Point"},"properties":{"Address":"N15 3EJ","name":"Tracy","hfrecnum":"7217","TimeAndDate":"Sat Oct 19 2024","Venue":"BWF Broadwater Farm","Category":"Hi-Fi integrated","fldsize":"6.3","fldtype":"24","id":"4625","Outcome":"fixed later","id":"4625"}},
{"type": "Feature","geometry":{"coordinates": [-0.122229,51.529953],"type":"Point"},"properties":{"Address":"WC1H 8BB","name":"Angel","hfrecnum":"7218","TimeAndDate":"Sat Oct 19 2024","Venue":"BWF Broadwater Farm","Category":"Hhold non-elec","fldsize":"6.3","fldtype":"24","id":"4624","Outcome":"REFUSED","id":"4624"}},
{"type": "Feature","geometry":{"coordinates": [-0.114396,51.607127],"type":"Point"},"properties":{"Address":"N22 8RF","name":"Gustavo","hfrecnum":"7220","TimeAndDate":"Sat Oct 19 2024","Venue":"BWF Broadwater Farm","Category":"Fan Heater","fldsize":"6.3","fldtype":"24","id":"4622","Outcome":"diagnosed","id":"4622"}},
{"type": "Feature","geometry":{"coordinates": [-0.114396,51.607127],"type":"Point"},"properties":{"Address":"N22 8RF","name":"Gustavo","hfrecnum":"7221","TimeAndDate":"Sat Oct 19 2024","Venue":"BWF Broadwater Farm","Category":"Small kitchen item","fldsize":"6.3","fldtype":"24","id":"4621","Outcome":"Beyond Repair","id":"4621"}},
{"type": "Feature","geometry":{"coordinates": [-0.097329,51.597023],"type":"Point"},"properties":{"Address":"N22 6JN","name":"Chrystine","hfrecnum":"7222","TimeAndDate":"Sat Oct 19 2024","Venue":"BWF Broadwater Farm","Category":"Large home electrical","fldsize":"6.3","fldtype":"24","id":"4620","Outcome":"diagnosed","id":"4620"}},
{"type": "Feature","geometry":{"coordinates": [-0.078208,51.594733],"type":"Point"},"properties":{"Address":"N17 6jq","name":"Camille","hfrecnum":"7224","TimeAndDate":"Sat Oct 19 2024","Venue":"BWF Broadwater Farm","Category":"Furniture","fldsize":"6.3","fldtype":"24","id":"4618","Outcome":"diagnosed","id":"4618"}},
{"type": "Feature","geometry":{"coordinates": [-0.084505,51.595717],"type":"Point"},"properties":{"Address":"","name":"Ella","hfrecnum":"7225","TimeAndDate":"Sat Oct 19 2024","Venue":"BWF Broadwater Farm","Category":"Toy","fldsize":"6.3","fldtype":"24","id":"4617","Outcome":"fixed","id":"4617"}},
{"type": "Feature","geometry":{"coordinates": [-0.084505,51.595717],"type":"Point"},"properties":{"Address":"","name":"Ella","hfrecnum":"7226","TimeAndDate":"Sat Oct 19 2024","Venue":"BWF Broadwater Farm","Category":"Car kit","fldsize":"6.3","fldtype":"24","id":"4616","Outcome":"fixed","id":"4616"}},
{"type": "Feature","geometry":{"coordinates": [-0.084505,51.595717],"type":"Point"},"properties":{"Address":"N17 6HG","name":"Charles","hfrecnum":"7229","TimeAndDate":"Sat Oct 19 2024","Venue":"BWF Broadwater Farm","Category":"Lamp","fldsize":"6.3","fldtype":"24","id":"4613","Outcome":"fixed","id":"4613"}},
{"type": "Feature","geometry":{"coordinates": [-0.084505,51.595717],"type":"Point"},"properties":{"Address":"N17 6HG","name":"Aurea","hfrecnum":"7230","TimeAndDate":"Sat Oct 19 2024","Venue":"BWF Broadwater Farm","Category":"Watch/clock","fldsize":"6.3","fldtype":"24","id":"4612","Outcome":"fixed","id":"4612"}},
{"type": "Feature","geometry":{"coordinates": [-0.057938,51.583212],"type":"Point"},"properties":{"Address":"N17 9PW","name":"Quentin","hfrecnum":"7231","TimeAndDate":"Sat Oct 19 2024","Venue":"BWF Broadwater Farm","Category":"Coffee Maker","fldsize":"6.3","fldtype":"24","id":"4611","Outcome":"Self-repair","id":"4611"}},
{"type": "Feature","geometry":{"coordinates": [-0.105364,51.589665],"type":"Point"},"properties":{"Address":"","name":"","hfrecnum":"7110","TimeAndDate":"Sun Oct 13 2024","Venue":"AG Turnpike Lane","Category":"Iron","fldsize":"6.3","fldtype":"24","id":"4607","Outcome":"diagnosed","id":"4607"}},
{"type": "Feature","geometry":{"coordinates": [-0.107383,51.591016],"type":"Point"},"properties":{"Address":"N8 0QG","name":"Camilla","hfrecnum":"7111","TimeAndDate":"Sun Oct 13 2024","Venue":"AG Turnpike Lane","Category":"Sewing machine","fldsize":"6.3","fldtype":"24","id":"4606","Outcome":"fixed","id":"4606"}},
{"type": "Feature","geometry":{"coordinates": [-0.107383,51.591016],"type":"Point"},"properties":{"Address":"N8 0QG","name":"Camilla","hfrecnum":"7112","TimeAndDate":"Sun Oct 13 2024","Venue":"AG Turnpike Lane","Category":"Sewing machine","fldsize":"6.3","fldtype":"24","id":"4605","Outcome":"fixed","id":"4605"}},
{"type": "Feature","geometry":{"coordinates": [-0.098303,51.591337],"type":"Point"},"properties":{"Address":"N22 6AA","name":"Kerry-Ann","hfrecnum":"7114","TimeAndDate":"Sun Oct 13 2024","Venue":"AG Turnpike Lane","Category":"Misc (non-EEE)","fldsize":"6.3","fldtype":"24","id":"4603","Outcome":"partial fix","id":"4603"}},
{"type": "Feature","geometry":{"coordinates": [-0.031903,51.575423],"type":"Point"},"properties":{"Address":"E17 8BW","name":"ALASTAIR","hfrecnum":"7116","TimeAndDate":"Sun Oct 13 2024","Venue":"AG Turnpike Lane","Category":"Hi-Fi separates","fldsize":"6.3","fldtype":"24","id":"4601","Outcome":"diagnosed","id":"4601"}},
{"type": "Feature","geometry":{"coordinates": [-0.031903,51.575423],"type":"Point"},"properties":{"Address":"E17 8BW","name":"ALASTAIR","hfrecnum":"7117","TimeAndDate":"Sun Oct 13 2024","Venue":"AG Turnpike Lane","Category":"Hi-Fi separates","fldsize":"6.3","fldtype":"24","id":"4600","Outcome":"diagnosed","id":"4600"}},
{"type": "Feature","geometry":{"coordinates": [-0.117478,51.580801],"type":"Point"},"properties":{"Address":"N8 9BN","name":"Matthew","hfrecnum":"7119","TimeAndDate":"Sun Oct 13 2024","Venue":"AG Turnpike Lane","Category":"Toaster","fldsize":"6.3","fldtype":"24","id":"4598","Outcome":"Unable to fix","id":"4598"}},
{"type": "Feature","geometry":{"coordinates": [-0.116647,51.579667],"type":"Point"},"properties":{"Address":"n8 9se","name":"Vanessa","hfrecnum":"7120","TimeAndDate":"Sun Oct 13 2024","Venue":"AG Turnpike Lane","Category":"Hi-Fi separates","fldsize":"6.3","fldtype":"24","id":"4597","Outcome":"diagnosed","id":"4597"}},
{"type": "Feature","geometry":{"coordinates": [-0.126046,51.60163],"type":"Point"},"properties":{"Address":"N22 7RX","name":"Laura","hfrecnum":"7121","TimeAndDate":"Sun Oct 13 2024","Venue":"AG Turnpike Lane","Category":"Small kitchen item","fldsize":"6.3","fldtype":"24","id":"4596","Outcome":"fixed","id":"4596"}},
{"type": "Feature","geometry":{"coordinates": [-0.095599,51.585223],"type":"Point"},"properties":{"Address":"N15 3RQ","name":"Aviva","hfrecnum":"7122","TimeAndDate":"Sun Oct 13 2024","Venue":"AG Turnpike Lane","Category":"none yet","fldsize":"6.3","fldtype":"24","id":"4595","Outcome":"unknown","id":"4595"}},
{"type": "Feature","geometry":{"coordinates": [-0.118368,51.603723],"type":"Point"},"properties":{"Address":"N22 8DH","name":"Robert","hfrecnum":"7123","TimeAndDate":"Sun Oct 13 2024","Venue":"AG Turnpike Lane","Category":"Printer/scanner","fldsize":"6.3","fldtype":"24","id":"4594","Outcome":"unknown","id":"4594"}},
{"type": "Feature","geometry":{"coordinates": [-0.11818,51.600128],"type":"Point"},"properties":{"Address":"N22 7BY","name":"Andrew","hfrecnum":"7124","TimeAndDate":"Sun Oct 13 2024","Venue":"AG Turnpike Lane","Category":"Small kitchen item","fldsize":"6.3","fldtype":"24","id":"4593","Outcome":"bringer2fix","id":"4593"}},
{"type": "Feature","geometry":{"coordinates": [-0.128651,51.578367],"type":"Point"},"properties":{"Address":"N8 8HT","name":"Pam","hfrecnum":"7125","TimeAndDate":"Sun Oct 13 2024","Venue":"AG Turnpike Lane","Category":"Small home electrical","fldsize":"6.3","fldtype":"24","id":"4592","Outcome":"REFUSED","id":"4592"}},
{"type": "Feature","geometry":{"coordinates": [-0.096599,51.607928],"type":"Point"},"properties":{"Address":"N13 6AJ","name":"Wai","hfrecnum":"7126","TimeAndDate":"Sun Oct 13 2024","Venue":"AG Turnpike Lane","Category":"Lamp","fldsize":"6.3","fldtype":"24","id":"4591","Outcome":"Self-repair","id":"4591"}},
{"type": "Feature","geometry":{"coordinates": [-0.084505,51.595717],"type":"Point"},"properties":{"Address":"N17 6HG","name":"internal","hfrecnum":"7010","TimeAndDate":"Sat Oct 05 2024","Venue":"LH Lordship Rec Hub","Category":"Iron","fldsize":"6.3","fldtype":"24","id":"4585","Outcome":"interim retry","id":"4585"}},
{"type": "Feature","geometry":{"coordinates": [-0.084505,51.595717],"type":"Point"},"properties":{"Address":"N17 6HG","name":"internal","hfrecnum":"7011","TimeAndDate":"Sat Oct 05 2024","Venue":"LH Lordship Rec Hub","Category":"Blender","fldsize":"6.3","fldtype":"24","id":"4584","Outcome":"Unable to fix","id":"4584"}},
{"type": "Feature","geometry":{"coordinates": [-0.182152,51.617821],"type":"Point"},"properties":{"Address":"n128ry","name":"Vitali","hfrecnum":"7012","TimeAndDate":"Sat Oct 05 2024","Venue":"LH Lordship Rec Hub","Category":"Hi-Fi separates","fldsize":"6.3","fldtype":"24","id":"4583","Outcome":"diagnosed","id":"4583"}},
{"type": "Feature","geometry":{"coordinates": [-0.107978,51.598229],"type":"Point"},"properties":{"Address":"N22 5nd","name":"Tania","hfrecnum":"7013","TimeAndDate":"Sat Oct 05 2024","Venue":"LH Lordship Rec Hub","Category":"Suitcase","fldsize":"6.3","fldtype":"24","id":"4582","Outcome":"Self-repair","id":"4582"}},
{"type": "Feature","geometry":{"coordinates": [-0.055895,51.53773],"type":"Point"},"properties":{"Address":"E9 7RF","name":"Serena","hfrecnum":"7014","TimeAndDate":"Sat Oct 05 2024","Venue":"LH Lordship Rec Hub","Category":"Lamp","fldsize":"6.3","fldtype":"24","id":"4581","Outcome":"fixed","id":"4581"}},
{"type": "Feature","geometry":{"coordinates": [-0.077284,51.553694],"type":"Point"},"properties":{"Address":"n16 8dl","name":"Tom","hfrecnum":"7015","TimeAndDate":"Sat Oct 05 2024","Venue":"LH Lordship Rec Hub","Category":"Small home electrical","fldsize":"6.3","fldtype":"24","id":"4580","Outcome":"fixed","id":"4580"}},
{"type": "Feature","geometry":{"coordinates": [-0.131643,51.598608],"type":"Point"},"properties":{"Address":"N22 7BH","name":"Kirsten","hfrecnum":"7016","TimeAndDate":"Sat Oct 05 2024","Venue":"LH Lordship Rec Hub","Category":"Lamp","fldsize":"6.3","fldtype":"24","id":"4579","Outcome":"diagnosed","id":"4579"}},
{"type": "Feature","geometry":{"coordinates": [-0.121616,51.589728],"type":"Point"},"properties":{"Address":"N8 7ad","name":"Anna","hfrecnum":"7017","TimeAndDate":"Sat Oct 05 2024","Venue":"LH Lordship Rec Hub","Category":"Lamp","fldsize":"6.3","fldtype":"24","id":"4578","Outcome":"Unable to fix","id":"4578"}},
{"type": "Feature","geometry":{"coordinates": [-0.113438,51.613247],"type":"Point"},"properties":{"Address":"N13 4NH","name":"Bee-Dwo","hfrecnum":"7019","TimeAndDate":"Sat Oct 05 2024","Venue":"LH Lordship Rec Hub","Category":"Small home electrical","fldsize":"6.3","fldtype":"24","id":"4576","Outcome":"diagnosed","id":"4576"}},
{"type": "Feature","geometry":{"coordinates": [-0.095721,51.574039],"type":"Point"},"properties":{"Address":"N4 1DH","name":"Annie","hfrecnum":"7020","TimeAndDate":"Sat Oct 05 2024","Venue":"LH Lordship Rec Hub","Category":"Small home electrical","fldsize":"6.3","fldtype":"24","id":"4575","Outcome":"fixed","id":"4575"}},
{"type": "Feature","geometry":{"coordinates": [-0.084505,51.595717],"type":"Point"},"properties":{"Address":"N17 6HG","name":"Annie","hfrecnum":"7021","TimeAndDate":"Sat Oct 05 2024","Venue":"LH Lordship Rec Hub","Category":"Tool (non-EEE)","fldsize":"6.3","fldtype":"24","id":"4574","Outcome":"fixed","id":"4574"}},
{"type": "Feature","geometry":{"coordinates": [-0.102584,51.578406],"type":"Point"},"properties":{"Address":"N4 1RT","name":"Polly","hfrecnum":"7022","TimeAndDate":"Sat Oct 05 2024","Venue":"LH Lordship Rec Hub","Category":"Coffee Maker","fldsize":"6.3","fldtype":"24","id":"4573","Outcome":"Unable to fix","id":"4573"}},
{"type": "Feature","geometry":{"coordinates": [-0.078529,51.5968],"type":"Point"},"properties":{"Address":"N17 6HD","name":"laure","hfrecnum":"7023","TimeAndDate":"Sat Oct 05 2024","Venue":"LH Lordship Rec Hub","Category":"Toaster","fldsize":"6.3","fldtype":"24","id":"4572","Outcome":"fixed","id":"4572"}},
{"type": "Feature","geometry":{"coordinates": [-0.006212,51.580079],"type":"Point"},"properties":{"Address":"E17 9JD","name":"Richard","hfrecnum":"7024","TimeAndDate":"Sat Oct 05 2024","Venue":"LH Lordship Rec Hub","Category":"Aircon/Dehumidifier","fldsize":"6.3","fldtype":"24","id":"4571","Outcome":"Not in the database","id":"4571"}},
{"type": "Feature","geometry":{"coordinates": [-0.017426,51.466674],"type":"Point"},"properties":{"Address":"SE13 7SD","name":"mengting","hfrecnum":"7025","TimeAndDate":"Sat Oct 05 2024","Venue":"LH Lordship Rec Hub","Category":"Furniture","fldsize":"6.3","fldtype":"24","id":"4570","Outcome":"fixed","id":"4570"}},
{"type": "Feature","geometry":{"coordinates": [-0.087004,51.592251],"type":"Point"},"properties":{"Address":"N17 6NU","name":"Bee Moore","hfrecnum":"7026","TimeAndDate":"Sat Oct 05 2024","Venue":"LH Lordship Rec Hub","Category":"Blender","fldsize":"6.3","fldtype":"24","id":"4569","Outcome":"fixed","id":"4569"}},
{"type": "Feature","geometry":{"coordinates": [-0.113312,51.576223],"type":"Point"},"properties":{"Address":"N4 4HX","name":"Gwyn","hfrecnum":"6910","TimeAndDate":"Sat Sep 21 2024","Venue":"BWF Broadwater Farm","Category":"Watch/clock","fldsize":"6.3","fldtype":"24","id":"4566","Outcome":"Unable to fix","id":"4566"}},
{"type": "Feature","geometry":{"coordinates": [-0.079971,51.574502],"type":"Point"},"properties":{"Address":"n16 5dl","name":"mahandra","hfrecnum":"6911","TimeAndDate":"Sat Sep 21 2024","Venue":"BWF Broadwater Farm","Category":"Portable radio","fldsize":"6.3","fldtype":"24","id":"4565","Outcome":"partial fix","id":"4565"}},
{"type": "Feature","geometry":{"coordinates": [-0.110191,51.6058],"type":"Point"},"properties":{"Address":"N22 5HX","name":"Sonia","hfrecnum":"6912","TimeAndDate":"Sat Sep 21 2024","Venue":"BWF Broadwater Farm","Category":"Kettle","fldsize":"6.3","fldtype":"24","id":"4564","Outcome":"Unable to fix","id":"4564"}},
{"type": "Feature","geometry":{"coordinates": [-0.016776,51.584412],"type":"Point"},"properties":{"Address":"E17 9SE","name":"Lukas","hfrecnum":"6913","TimeAndDate":"Sat Sep 21 2024","Venue":"BWF Broadwater Farm","Category":"Lamp","fldsize":"6.3","fldtype":"24","id":"4563","Outcome":"fixed","id":"4563"}},
{"type": "Feature","geometry":{"coordinates": [-0.067462,51.596526],"type":"Point"},"properties":{"Address":"N17 9GB","name":"Beata","hfrecnum":"6915","TimeAndDate":"Sat Sep 21 2024","Venue":"BWF Broadwater Farm","Category":"none yet","fldsize":"6.3","fldtype":"24","id":"4561","Outcome":"Unable to fix","id":"4561"}},
{"type": "Feature","geometry":{"coordinates": [-0.055895,51.53773],"type":"Point"},"properties":{"Address":"E9 7RF","name":"Serena","hfrecnum":"6916","TimeAndDate":"Sat Sep 21 2024","Venue":"BWF Broadwater Farm","Category":"Lamp","fldsize":"6.3","fldtype":"24","id":"4560","Outcome":"fixed","id":"4560"}},
{"type": "Feature","geometry":{"coordinates": [-0.017426,51.466674],"type":"Point"},"properties":{"Address":"SE13 7SD","name":"mengting","hfrecnum":"6919","TimeAndDate":"Sat Sep 21 2024","Venue":"BWF Broadwater Farm","Category":"Furniture","fldsize":"6.3","fldtype":"24","id":"4557","Outcome":"partial fix","id":"4557"}},
{"type": "Feature","geometry":{"coordinates": [-0.083081,51.589768],"type":"Point"},"properties":{"Address":"N17 6DB","name":"Tetiana","hfrecnum":"6920","TimeAndDate":"Sat Sep 21 2024","Venue":"BWF Broadwater Farm","Category":"Desktop computer","fldsize":"6.3","fldtype":"24","id":"4556","Outcome":"Unable to fix","id":"4556"}},
{"type": "Feature","geometry":{"coordinates": [-0.098965,51.602454],"type":"Point"},"properties":{"Address":"N22 5BN","name":"Scott","hfrecnum":"6921","TimeAndDate":"Sat Sep 21 2024","Venue":"BWF Broadwater Farm","Category":"Garden Elec","fldsize":"6.3","fldtype":"24","id":"4555","Outcome":"Self-repair","id":"4555"}},
{"type": "Feature","geometry":{"coordinates": [-0.182152,51.617821],"type":"Point"},"properties":{"Address":"N128ry","name":"Vitali","hfrecnum":"6922","TimeAndDate":"Sat Sep 21 2024","Venue":"BWF Broadwater Farm","Category":"Hi-Fi separates","fldsize":"6.3","fldtype":"24","id":"4554","Outcome":"partial fix","id":"4554"}},
{"type": "Feature","geometry":{"coordinates": [-0.087569,51.585336],"type":"Point"},"properties":{"Address":"N15 5BE","name":"Jess","hfrecnum":"6923","TimeAndDate":"Sat Sep 21 2024","Venue":"BWF Broadwater Farm","Category":"Portable radio","fldsize":"6.3","fldtype":"24","id":"4553","Outcome":"diagnosed","id":"4553"}},
{"type": "Feature","geometry":{"coordinates": [-0.021741,51.621312],"type":"Point"},"properties":{"Address":"E4 8DY","name":"Norma","hfrecnum":"6927","TimeAndDate":"Sat Sep 21 2024","Venue":"BWF Broadwater Farm","Category":"Garden Elec","fldsize":"6.3","fldtype":"24","id":"4549","Outcome":"fixed","id":"4549"}},
{"type": "Feature","geometry":{"coordinates": [-0.133088,51.554892],"type":"Point"},"properties":{"Address":"N7 0RB","name":"Assia","hfrecnum":"6928","TimeAndDate":"Sat Sep 21 2024","Venue":"BWF Broadwater Farm","Category":"Suitcase","fldsize":"6.3","fldtype":"24","id":"4548","Outcome":"diagnosed","id":"4548"}},
{"type": "Feature","geometry":{"coordinates": [-0.078529,51.5968],"type":"Point"},"properties":{"Address":"N17 6HD","name":"Laure","hfrecnum":"6929","TimeAndDate":"Sat Sep 21 2024","Venue":"BWF Broadwater Farm","Category":"none yet","fldsize":"6.3","fldtype":"24","id":"4547","Outcome":"Unable to fix","id":"4547"}},
{"type": "Feature","geometry":{"coordinates": [-0.087004,51.592251],"type":"Point"},"properties":{"Address":"N17 6NU","name":"Carola","hfrecnum":"6930","TimeAndDate":"Sat Sep 21 2024","Venue":"BWF Broadwater Farm","Category":"Lamp","fldsize":"6.3","fldtype":"24","id":"4546","Outcome":"fixed","id":"4546"}},
{"type": "Feature","geometry":{"coordinates": [-0.096643,51.59238],"type":"Point"},"properties":{"Address":"N22 6AD","name":"Doris","hfrecnum":"6931","TimeAndDate":"Sat Sep 21 2024","Venue":"BWF Broadwater Farm","Category":"Blender","fldsize":"6.3","fldtype":"24","id":"4545","Outcome":"diagnosed","id":"4545"}},
{"type": "Feature","geometry":{"coordinates": [-0.084505,51.595717],"type":"Point"},"properties":{"Address":"N17 6HG","name":"Joanne","hfrecnum":"6932","TimeAndDate":"Sat Sep 21 2024","Venue":"BWF Broadwater Farm","Category":"Hi-Fi separates","fldsize":"6.3","fldtype":"24","id":"4544","Outcome":"Not in the database","id":"4544"}},
{"type": "Feature","geometry":{"coordinates": [-0.086296,51.550343],"type":"Point"},"properties":{"Address":"N1 4RD","name":"Jasmine","hfrecnum":"6810","TimeAndDate":"Sun Sep 08 2024","Venue":"AG Turnpike Lane","Category":"Watch/clock","fldsize":"6.3","fldtype":"24","id":"4541","Outcome":"fixed","id":"4541"}},
{"type": "Feature","geometry":{"coordinates": [-0.120627,51.608369],"type":"Point"},"properties":{"Address":"N112QS","name":"Tere","hfrecnum":"6811","TimeAndDate":"Sun Sep 08 2024","Venue":"AG Turnpike Lane","Category":"Sewing machine","fldsize":"6.3","fldtype":"24","id":"4540","Outcome":"fixed","id":"4540"}},
{"type": "Feature","geometry":{"coordinates": [-0.120627,51.608369],"type":"Point"},"properties":{"Address":"N112QS","name":"Tere","hfrecnum":"6812","TimeAndDate":"Sun Sep 08 2024","Venue":"AG Turnpike Lane","Category":"Bicycle","fldsize":"6.3","fldtype":"24","id":"4539","Outcome":"Unable to fix","id":"4539"}},
{"type": "Feature","geometry":{"coordinates": [-0.102134,51.577353],"type":"Point"},"properties":{"Address":"N41RY","name":"Karen","hfrecnum":"6813","TimeAndDate":"Sun Sep 08 2024","Venue":"AG Turnpike Lane","Category":"Tool (non-EEE)","fldsize":"6.3","fldtype":"24","id":"4538","Outcome":"Unable to fix","id":"4538"}},
{"type": "Feature","geometry":{"coordinates": [-0.145045,51.587193],"type":"Point"},"properties":{"Address":"N10 3NE","name":"Josephine","hfrecnum":"6814","TimeAndDate":"Sun Sep 08 2024","Venue":"AG Turnpike Lane","Category":"Fan","fldsize":"6.3","fldtype":"24","id":"4537","Outcome":"Unable to fix","id":"4537"}},
{"type": "Feature","geometry":{"coordinates": [-0.102568,51.592917],"type":"Point"},"properties":{"Address":"N22 6XT","name":"Lillian","hfrecnum":"6815","TimeAndDate":"Sun Sep 08 2024","Venue":"AG Turnpike Lane","Category":"Lamp","fldsize":"6.3","fldtype":"24","id":"4536","Outcome":"Unable to fix","id":"4536"}},
{"type": "Feature","geometry":{"coordinates": [-0.121064,51.584834],"type":"Point"},"properties":{"Address":"N8 7JR","name":"Jill","hfrecnum":"6816","TimeAndDate":"Sun Sep 08 2024","Venue":"AG Turnpike Lane","Category":"Clothing/textile","fldsize":"6.3","fldtype":"24","id":"4535","Outcome":"Self-repair","id":"4535"}},
{"type": "Feature","geometry":{"coordinates": [-0.098303,51.591337],"type":"Point"},"properties":{"Address":"N22 6AA","name":"Kerry-Ann","hfrecnum":"6817","TimeAndDate":"Sun Sep 08 2024","Venue":"AG Turnpike Lane","Category":"Decorative or safety lights","fldsize":"6.3","fldtype":"24","id":"4534","Outcome":"fixed","id":"4534"}},
{"type": "Feature","geometry":{"coordinates": [-0.128651,51.578367],"type":"Point"},"properties":{"Address":"N8 8HT","name":"Pam","hfrecnum":"6818","TimeAndDate":"Sun Sep 08 2024","Venue":"AG Turnpike Lane","Category":"Vacuum","fldsize":"6.3","fldtype":"24","id":"4533","Outcome":"fixed","id":"4533"}},
{"type": "Feature","geometry":{"coordinates": [-0.117976,51.578516],"type":"Point"},"properties":{"Address":"N89HR","name":"ERICA","hfrecnum":"6821","TimeAndDate":"Sun Sep 08 2024","Venue":"AG Turnpike Lane","Category":"Vacuum","fldsize":"6.3","fldtype":"24","id":"4530","Outcome":"Unable to fix","id":"4530"}},
{"type": "Feature","geometry":{"coordinates": [0.001934,51.572323],"type":"Point"},"properties":{"Address":"E11 1EY","name":"Dolores","hfrecnum":"6822","TimeAndDate":"Sun Sep 08 2024","Venue":"AG Turnpike Lane","Category":"Clothing/textile","fldsize":"6.3","fldtype":"24","id":"4529","Outcome":"partial fix","id":"4529"}},
{"type": "Feature","geometry":{"coordinates": [-0.127538,51.61204],"type":"Point"},"properties":{"Address":"N11 2LG","name":"Anna","hfrecnum":"6824","TimeAndDate":"Sun Sep 08 2024","Venue":"AG Turnpike Lane","Category":"Portable radio","fldsize":"6.3","fldtype":"24","id":"4527","Outcome":"diagnosed","id":"4527"}},
{"type": "Feature","geometry":{"coordinates": [-0.115324,51.598053],"type":"Point"},"properties":{"Address":"N22 7TW","name":"Caroline","hfrecnum":"6825","TimeAndDate":"Sun Sep 08 2024","Venue":"AG Turnpike Lane","Category":"Small home electrical","fldsize":"6.3","fldtype":"24","id":"4526","Outcome":"Unable to fix","id":"4526"}},
{"type": "Feature","geometry":{"coordinates": [-0.099495,51.579738],"type":"Point"},"properties":{"Address":"N4 1HE","name":"Satish","hfrecnum":"6826","TimeAndDate":"Sun Sep 08 2024","Venue":"AG Turnpike Lane","Category":"Sewing machine","fldsize":"6.3","fldtype":"24","id":"4525","Outcome":"Unable to fix","id":"4525"}},
{"type": "Feature","geometry":{"coordinates": [-0.099495,51.579738],"type":"Point"},"properties":{"Address":"N4 1HE","name":"Satish","hfrecnum":"6827","TimeAndDate":"Sun Sep 08 2024","Venue":"AG Turnpike Lane","Category":"Lamp","fldsize":"6.3","fldtype":"24","id":"4524","Outcome":"Unable to fix","id":"4524"}},
{"type": "Feature","geometry":{"coordinates": [-0.10597,51.586452],"type":"Point"},"properties":{"Address":"N8 0QT","name":"Melanie","hfrecnum":"6828","TimeAndDate":"Sun Sep 08 2024","Venue":"AG Turnpike Lane","Category":"Headphones","fldsize":"6.3","fldtype":"24","id":"4523","Outcome":"diagnosed","id":"4523"}},
{"type": "Feature","geometry":{"coordinates": [-0.099852,51.590904],"type":"Point"},"properties":{"Address":"N15 3NH","name":"Stephen","hfrecnum":"6829","TimeAndDate":"Sun Sep 08 2024","Venue":"AG Turnpike Lane","Category":"Musical instrument","fldsize":"6.3","fldtype":"24","id":"4522","Outcome":"Self-repair","id":"4522"}},
{"type": "Feature","geometry":{"coordinates": [-0.031903,51.575423],"type":"Point"},"properties":{"Address":"E17 8BW","name":"Kirsty","hfrecnum":"6831","TimeAndDate":"Sun Sep 08 2024","Venue":"AG Turnpike Lane","Category":"VHS/DVD","fldsize":"6.3","fldtype":"24","id":"4520","Outcome":"Self-repair","id":"4520"}},
{"type": "Feature","geometry":{"coordinates": [-0.087004,51.592251],"type":"Point"},"properties":{"Address":"N17 6NU","name":"Vitali","hfrecnum":"6710","TimeAndDate":"Sat Sep 07 2024","Venue":"LH Lordship Rec Hub","Category":"Hi-Fi separates","fldsize":"6.3","fldtype":"24","id":"4517","Outcome":"partial fix","id":"4517"}},
{"type": "Feature","geometry":{"coordinates": [-0.053906,51.553596],"type":"Point"},"properties":{"Address":"e58tr","name":"Yewande","hfrecnum":"6711","TimeAndDate":"Sat Sep 07 2024","Venue":"LH Lordship Rec Hub","Category":"Lamp","fldsize":"6.3","fldtype":"24","id":"4516","Outcome":"diagnosed","id":"4516"}},
{"type": "Feature","geometry":{"coordinates": [-0.053906,51.553596],"type":"Point"},"properties":{"Address":"e58tr","name":"Yewande","hfrecnum":"6712","TimeAndDate":"Sat Sep 07 2024","Venue":"LH Lordship Rec Hub","Category":"Furniture","fldsize":"6.3","fldtype":"24","id":"4515","Outcome":"fixed","id":"4515"}},
{"type": "Feature","geometry":{"coordinates": [-0.078331,51.584978],"type":"Point"},"properties":{"Address":"N15 5DE","name":"M","hfrecnum":"6713","TimeAndDate":"Sat Sep 07 2024","Venue":"LH Lordship Rec Hub","Category":"Hi-Fi separates","fldsize":"6.3","fldtype":"24","id":"4514","Outcome":"fixed","id":"4514"}},
{"type": "Feature","geometry":{"coordinates": [-0.086643,51.58881],"type":"Point"},"properties":{"Address":"N17 6PN","name":"Kate","hfrecnum":"6714","TimeAndDate":"Sat Sep 07 2024","Venue":"LH Lordship Rec Hub","Category":"Small kitchen item","fldsize":"6.3","fldtype":"24","id":"4513","Outcome":"Unable to fix","id":"4513"}},
{"type": "Feature","geometry":{"coordinates": [-0.15058,51.600194],"type":"Point"},"properties":{"Address":"N10 1AB","name":"Shane","hfrecnum":"6716","TimeAndDate":"Sat Sep 07 2024","Venue":"LH Lordship Rec Hub","Category":"Toy","fldsize":"6.3","fldtype":"24","id":"4511","Outcome":"fixed","id":"4511"}},
{"type": "Feature","geometry":{"coordinates": [-0.081073,51.591857],"type":"Point"},"properties":{"Address":"N17 6EA","name":"vince","hfrecnum":"6717","TimeAndDate":"Sat Sep 07 2024","Venue":"LH Lordship Rec Hub","Category":"Hi-Fi separates","fldsize":"6.3","fldtype":"24","id":"4510","Outcome":"fixed","id":"4510"}},
{"type": "Feature","geometry":{"coordinates": [-0.078331,51.584978],"type":"Point"},"properties":{"Address":"N15 5DE","name":"M","hfrecnum":"6718","TimeAndDate":"Sat Sep 07 2024","Venue":"LH Lordship Rec Hub","Category":"Hi-Fi separates","fldsize":"6.3","fldtype":"24","id":"4509","Outcome":"fixed","id":"4509"}},
{"type": "Feature","geometry":{"coordinates": [-0.07222,51.595678],"type":"Point"},"properties":{"Address":"N17 6uu","name":"Zoe","hfrecnum":"6719","TimeAndDate":"Sat Sep 07 2024","Venue":"LH Lordship Rec Hub","Category":"Lamp","fldsize":"6.3","fldtype":"24","id":"4508","Outcome":"fixed","id":"4508"}},
{"type": "Feature","geometry":{"coordinates": [-0.094647,51.602114],"type":"Point"},"properties":{"Address":"N22 5EH","name":"Shantanu","hfrecnum":"6720","TimeAndDate":"Sat Sep 07 2024","Venue":"LH Lordship Rec Hub","Category":"Kettle","fldsize":"6.3","fldtype":"24","id":"4507","Outcome":"diagnosed","id":"4507"}},
{"type": "Feature","geometry":{"coordinates": [-0.077284,51.553694],"type":"Point"},"properties":{"Address":"N16 8DL","name":"Tom","hfrecnum":"6721","TimeAndDate":"Sat Sep 07 2024","Venue":"LH Lordship Rec Hub","Category":"Fan","fldsize":"6.3","fldtype":"24","id":"4506","Outcome":"fixed","id":"4506"}},
{"type": "Feature","geometry":{"coordinates": [-0.094647,51.602114],"type":"Point"},"properties":{"Address":"N22 5EH","name":"Shantanu","hfrecnum":"6723","TimeAndDate":"Sat Sep 07 2024","Venue":"LH Lordship Rec Hub","Category":"Hi-Fi separates","fldsize":"6.3","fldtype":"24","id":"4504","Outcome":"diagnosed","id":"4504"}},
{"type": "Feature","geometry":{"coordinates": [-0.110258,51.570785],"type":"Point"},"properties":{"Address":"N4 3AN","name":"Eleanor","hfrecnum":"6724","TimeAndDate":"Sat Sep 07 2024","Venue":"LH Lordship Rec Hub","Category":"Vacuum","fldsize":"6.3","fldtype":"24","id":"4503","Outcome":"Unable to fix","id":"4503"}},
{"type": "Feature","geometry":{"coordinates": [-0.016776,51.584412],"type":"Point"},"properties":{"Address":"E17 9SE","name":"Lukas","hfrecnum":"6725","TimeAndDate":"Sat Sep 07 2024","Venue":"LH Lordship Rec Hub","Category":"Lamp","fldsize":"6.3","fldtype":"24","id":"4502","Outcome":"partial fix","id":"4502"}},
{"type": "Feature","geometry":{"coordinates": [-0.09437,51.594601],"type":"Point"},"properties":{"Address":"N22 6QX","name":"Nik","hfrecnum":"6726","TimeAndDate":"Sat Sep 07 2024","Venue":"LH Lordship Rec Hub","Category":"Flat screen 19-21 inch","fldsize":"6.3","fldtype":"24","id":"4501","Outcome":"Unable to fix","id":"4501"}},
{"type": "Feature","geometry":{"coordinates": [-0.067502,51.545916],"type":"Point"},"properties":{"Address":"E8 1BZ","name":"Dewi","hfrecnum":"6728","TimeAndDate":"Sat Sep 07 2024","Venue":"LH Lordship Rec Hub","Category":"Toaster","fldsize":"6.3","fldtype":"24","id":"4499","Outcome":"Unable to fix","id":"4499"}},
{"type": "Feature","geometry":{"coordinates": [-0.082359,51.58874],"type":"Point"},"properties":{"Address":"N15 4HJ","name":"Cathy","hfrecnum":"6729","TimeAndDate":"Sat Sep 07 2024","Venue":"LH Lordship Rec Hub","Category":"Aircon/Dehumidifier","fldsize":"6.3","fldtype":"24","id":"4498","Outcome":"diagnosed","id":"4498"}},
{"type": "Feature","geometry":{"coordinates": [-0.090616,51.598721],"type":"Point"},"properties":{"Address":"N177PX","name":"Ruth","hfrecnum":"6730","TimeAndDate":"Sat Sep 07 2024","Venue":"LH Lordship Rec Hub","Category":"Kettle","fldsize":"6.3","fldtype":"24","id":"4497","Outcome":"Unable to fix","id":"4497"}},
{"type": "Feature","geometry":{"coordinates": [-0.087004,51.592251],"type":"Point"},"properties":{"Address":"","name":"Kay Newport","hfrecnum":"6731","TimeAndDate":"Sat Sep 07 2024","Venue":"LH Lordship Rec Hub","Category":"Vacuum","fldsize":"6.3","fldtype":"24","id":"4496","Outcome":"fixed","id":"4496"}},
{"type": "Feature","geometry":{"coordinates": [-0.201668,51.54019],"type":"Point"},"properties":{"Address":"NW6 7RJ","name":"Caroline","hfrecnum":"6610","TimeAndDate":"Sat Aug 17 2024","Venue":"BWF Broadwater Farm","Category":"none yet","fldsize":"6.3","fldtype":"24","id":"4489","Outcome":"Not in the database","id":"4489"}},
{"type": "Feature","geometry":{"coordinates": [-0.063016,51.578863],"type":"Point"},"properties":{"Address":"N15 6BZ","name":"Steven","hfrecnum":"6612","TimeAndDate":"Sat Aug 17 2024","Venue":"BWF Broadwater Farm","Category":"Hi-Fi integrated","fldsize":"6.3","fldtype":"24","id":"4487","Outcome":"fixed","id":"4487"}},
{"type": "Feature","geometry":{"coordinates": [-0.067011,51.599666],"type":"Point"},"properties":{"Address":"N17 0AU","name":"Nicola","hfrecnum":"6613","TimeAndDate":"Sat Aug 17 2024","Venue":"BWF Broadwater Farm","Category":"Paper shredder","fldsize":"6.3","fldtype":"24","id":"4486","Outcome":"fixed","id":"4486"}},
{"type": "Feature","geometry":{"coordinates": [-0.033093,51.595381],"type":"Point"},"properties":{"Address":"E17 5RW","name":"Aine","hfrecnum":"6614","TimeAndDate":"Sat Aug 17 2024","Venue":"BWF Broadwater Farm","Category":"Lamp","fldsize":"6.3","fldtype":"24","id":"4485","Outcome":"diagnosed","id":"4485"}},
{"type": "Feature","geometry":{"coordinates": [-0.097737,51.593912],"type":"Point"},"properties":{"Address":"n22 6sa","name":"Chloe","hfrecnum":"6615","TimeAndDate":"Sat Aug 17 2024","Venue":"BWF Broadwater Farm","Category":"Entertainment device","fldsize":"6.3","fldtype":"24","id":"4484","Outcome":"diagnosed","id":"4484"}},
{"type": "Feature","geometry":{"coordinates": [-0.083266,51.595301],"type":"Point"},"properties":{"Address":"N17 6LS","name":"Nina","hfrecnum":"6616","TimeAndDate":"Sat Aug 17 2024","Venue":"BWF Broadwater Farm","Category":"Coffee Maker","fldsize":"6.3","fldtype":"24","id":"4483","Outcome":"Unable to fix","id":"4483"}},
{"type": "Feature","geometry":{"coordinates": [-0.10293,51.579731],"type":"Point"},"properties":{"Address":"N4 1BG","name":"Martin","hfrecnum":"6617","TimeAndDate":"Sat Aug 17 2024","Venue":"BWF Broadwater Farm","Category":"Large home electrical","fldsize":"6.3","fldtype":"24","id":"4482","Outcome":"fixed","id":"4482"}},
{"type": "Feature","geometry":{"coordinates": [-0.054107,51.55772],"type":"Point"},"properties":{"Address":"e50qq","name":"Freya","hfrecnum":"6618","TimeAndDate":"Sat Aug 17 2024","Venue":"BWF Broadwater Farm","Category":"Lamp","fldsize":"6.3","fldtype":"24","id":"4481","Outcome":"fixed","id":"4481"}},
{"type": "Feature","geometry":{"coordinates": [-0.054107,51.55772],"type":"Point"},"properties":{"Address":"e50qq","name":"Freya","hfrecnum":"6619","TimeAndDate":"Sat Aug 17 2024","Venue":"BWF Broadwater Farm","Category":"Lamp","fldsize":"6.3","fldtype":"24","id":"4480","Outcome":"fixed","id":"4480"}},
{"type": "Feature","geometry":{"coordinates": [-0.075048,51.620651],"type":"Point"},"properties":{"Address":"N9 9BL","name":"Asim","hfrecnum":"6621","TimeAndDate":"Sat Aug 17 2024","Venue":"BWF Broadwater Farm","Category":"Digital Compact Camera","fldsize":"6.3","fldtype":"24","id":"4478","Outcome":"diagnosed","id":"4478"}},
{"type": "Feature","geometry":{"coordinates": [-0.23529,51.532295],"type":"Point"},"properties":{"Address":"nw10 5NH","name":"Maria","hfrecnum":"6622","TimeAndDate":"Sat Aug 17 2024","Venue":"BWF Broadwater Farm","Category":"Sewing machine","fldsize":"6.3","fldtype":"24","id":"4477","Outcome":"diagnosed","id":"4477"}},
{"type": "Feature","geometry":{"coordinates": [-0.080005,51.590806],"type":"Point"},"properties":{"Address":"N176EE","name":"Saskia","hfrecnum":"6623","TimeAndDate":"Sat Aug 17 2024","Venue":"BWF Broadwater Farm","Category":"Lamp","fldsize":"6.3","fldtype":"24","id":"4476","Outcome":"Self-repair","id":"4476"}},
{"type": "Feature","geometry":{"coordinates": [-0.080005,51.590806],"type":"Point"},"properties":{"Address":"N176EE","name":"Saskia","hfrecnum":"6624","TimeAndDate":"Sat Aug 17 2024","Venue":"BWF Broadwater Farm","Category":"Entertainment device","fldsize":"6.3","fldtype":"24","id":"4475","Outcome":"diagnosed","id":"4475"}},
{"type": "Feature","geometry":{"coordinates": [-0.089905,51.601218],"type":"Point"},"properties":{"Address":"N17 7EG","name":"Friedrich","hfrecnum":"6626","TimeAndDate":"Sat Aug 17 2024","Venue":"BWF Broadwater Farm","Category":"Clothing/textile","fldsize":"6.3","fldtype":"24","id":"4473","Outcome":"fixed","id":"4473"}},
{"type": "Feature","geometry":{"coordinates": [-0.158661,51.644221],"type":"Point"},"properties":{"Address":"EN4 8HY","name":"Stephen","hfrecnum":"6627","TimeAndDate":"Sat Aug 17 2024","Venue":"BWF Broadwater Farm","Category":"Coffee Maker","fldsize":"6.3","fldtype":"24","id":"4472","Outcome":"diagnosed","id":"4472"}},
{"type": "Feature","geometry":{"coordinates": [-0.158661,51.644221],"type":"Point"},"properties":{"Address":"EN4 8HY","name":"Hristina","hfrecnum":"6628","TimeAndDate":"Sat Aug 17 2024","Venue":"BWF Broadwater Farm","Category":"Coffee Maker","fldsize":"6.3","fldtype":"24","id":"4471","Outcome":"Unable to fix","id":"4471"}},
{"type": "Feature","geometry":{"coordinates": [-0.129385,51.546362],"type":"Point"},"properties":{"Address":"NW19BT","name":"Lucy","hfrecnum":"6629","TimeAndDate":"Sat Aug 17 2024","Venue":"BWF Broadwater Farm","Category":"Blender","fldsize":"6.3","fldtype":"24","id":"4470","Outcome":"Unable to fix","id":"4470"}},
{"type": "Feature","geometry":{"coordinates": [-0.098303,51.591337],"type":"Point"},"properties":{"Address":"N22 6AA","name":"Kerry-Ann","hfrecnum":"6510","TimeAndDate":"Sun Aug 11 2024","Venue":"AG Turnpike Lane","Category":"Lamp","fldsize":"6.3","fldtype":"24","id":"4467","Outcome":"fixed","id":"4467"}},
{"type": "Feature","geometry":{"coordinates": [-0.086296,51.550343],"type":"Point"},"properties":{"Address":"N1 4RD","name":"Jasmine","hfrecnum":"6511","TimeAndDate":"Sun Aug 11 2024","Venue":"AG Turnpike Lane","Category":"Watch/clock","fldsize":"6.3","fldtype":"24","id":"4466","Outcome":"diagnosed","id":"4466"}},
{"type": "Feature","geometry":{"coordinates": [-0.11879,51.604683],"type":"Point"},"properties":{"Address":"N22 8PL","name":"Sana","hfrecnum":"6513","TimeAndDate":"Sun Aug 11 2024","Venue":"AG Turnpike Lane","Category":"Small kitchen item","fldsize":"6.3","fldtype":"24","id":"4464","Outcome":"diagnosed","id":"4464"}},
{"type": "Feature","geometry":{"coordinates": [-0.102627,51.578692],"type":"Point"},"properties":{"Address":"N4 1RP","name":"Maren","hfrecnum":"6515","TimeAndDate":"Sun Aug 11 2024","Venue":"AG Turnpike Lane","Category":"Lamp","fldsize":"6.3","fldtype":"24","id":"4462","Outcome":"fixed","id":"4462"}},
{"type": "Feature","geometry":{"coordinates": [-0.116346,51.608156],"type":"Point"},"properties":{"Address":"N22 8NN","name":"rachel","hfrecnum":"6516","TimeAndDate":"Sun Aug 11 2024","Venue":"AG Turnpike Lane","Category":"Lamp","fldsize":"6.3","fldtype":"24","id":"4461","Outcome":"fixed","id":"4461"}},
{"type": "Feature","geometry":{"coordinates": [-0.097996,51.594276],"type":"Point"},"properties":{"Address":"N22 6sd","name":"Bob","hfrecnum":"6517","TimeAndDate":"Sun Aug 11 2024","Venue":"AG Turnpike Lane","Category":"Small kitchen item","fldsize":"6.3","fldtype":"24","id":"4460","Outcome":"fixed","id":"4460"}},
{"type": "Feature","geometry":{"coordinates": [-0.125247,51.556844],"type":"Point"},"properties":{"Address":"N7 0NB","name":"Danielle","hfrecnum":"6518","TimeAndDate":"Sun Aug 11 2024","Venue":"AG Turnpike Lane","Category":"Kettle","fldsize":"6.3","fldtype":"24","id":"4459","Outcome":"diagnosed","id":"4459"}},
{"type": "Feature","geometry":{"coordinates": [-0.116346,51.608156],"type":"Point"},"properties":{"Address":"N22 8NN","name":"Phil","hfrecnum":"6519","TimeAndDate":"Sun Aug 11 2024","Venue":"AG Turnpike Lane","Category":"Fan","fldsize":"6.3","fldtype":"24","id":"4458","Outcome":"Unable to fix","id":"4458"}},
{"type": "Feature","geometry":{"coordinates": [-0.079971,51.574502],"type":"Point"},"properties":{"Address":"N16 5DL","name":"mahandra","hfrecnum":"6520","TimeAndDate":"Sun Aug 11 2024","Venue":"AG Turnpike Lane","Category":"Laptop medium","fldsize":"6.3","fldtype":"24","id":"4457","Outcome":"fixed","id":"4457"}},
{"type": "Feature","geometry":{"coordinates": [-0.084505,51.595717],"type":"Point"},"properties":{"Address":"N17 6HG","name":"Internal","hfrecnum":"6521","TimeAndDate":"Sun Aug 11 2024","Venue":"AG Turnpike Lane","Category":"Portable radio","fldsize":"6.3","fldtype":"24","id":"4456","Outcome":"interim retry","id":"4456"}},
{"type": "Feature","geometry":{"coordinates": [-0.084505,51.595717],"type":"Point"},"properties":{"Address":"N17 6HG","name":"Internal","hfrecnum":"6522","TimeAndDate":"Sun Aug 11 2024","Venue":"AG Turnpike Lane","Category":"Hair & Beauty item","fldsize":"6.3","fldtype":"24","id":"4455","Outcome":"Beyond Repair","id":"4455"}},
{"type": "Feature","geometry":{"coordinates": [-0.084505,51.595717],"type":"Point"},"properties":{"Address":"N17 6HG","name":"Tony","hfrecnum":"6524","TimeAndDate":"Sun Aug 11 2024","Venue":"AG Turnpike Lane","Category":"Small home electrical","fldsize":"6.3","fldtype":"24","id":"4453","Outcome":"NOT FAULTY","id":"4453"}},
{"type": "Feature","geometry":{"coordinates": [-0.103554,51.581036],"type":"Point"},"properties":{"Address":"N4 1AT","name":"Henry","hfrecnum":"6410","TimeAndDate":"Sat Aug 03 2024","Venue":"LH Lordship Rec Hub","Category":"Small kitchen item","fldsize":"6.3","fldtype":"24","id":"4446","Outcome":"diagnosed","id":"4446"}},
{"type": "Feature","geometry":{"coordinates": [-0.06701,51.601743],"type":"Point"},"properties":{"Address":" N17 0aw ","name":"Angella","hfrecnum":"6412","TimeAndDate":"Sat Aug 03 2024","Venue":"LH Lordship Rec Hub","Category":"Small kitchen item","fldsize":"6.3","fldtype":"24","id":"4444","Outcome":"Unable to fix","id":"4444"}},
{"type": "Feature","geometry":{"coordinates": [-0.087004,51.592251],"type":"Point"},"properties":{"Address":"N17 6NU","name":"Nuru","hfrecnum":"6413","TimeAndDate":"Sat Aug 03 2024","Venue":"LH Lordship Rec Hub","Category":"Garden Elec","fldsize":"6.3","fldtype":"24","id":"4443","Outcome":"diagnosed","id":"4443"}},
{"type": "Feature","geometry":{"coordinates": [-0.087004,51.592251],"type":"Point"},"properties":{"Address":"N17 6NU","name":"Carola","hfrecnum":"6416","TimeAndDate":"Sat Aug 03 2024","Venue":"LH Lordship Rec Hub","Category":"Lamp","fldsize":"6.3","fldtype":"24","id":"4440","Outcome":"Unable to fix","id":"4440"}},
{"type": "Feature","geometry":{"coordinates": [-0.087004,51.592251],"type":"Point"},"properties":{"Address":"N17 6NU","name":"Carola","hfrecnum":"6417","TimeAndDate":"Sat Aug 03 2024","Venue":"LH Lordship Rec Hub","Category":"Lamp","fldsize":"6.3","fldtype":"24","id":"4439","Outcome":"fixed","id":"4439"}},
{"type": "Feature","geometry":{"coordinates": [-0.173253,51.641491],"type":"Point"},"properties":{"Address":"EN5 1DE","name":"roxana","hfrecnum":"6419","TimeAndDate":"Sat Aug 03 2024","Venue":"LH Lordship Rec Hub","Category":"none yet","fldsize":"6.3","fldtype":"24","id":"4437","Outcome":"fixed","id":"4437"}},
{"type": "Feature","geometry":{"coordinates": [-0.173253,51.641491],"type":"Point"},"properties":{"Address":"EN5 1DE","name":"roxana","hfrecnum":"6420","TimeAndDate":"Sat Aug 03 2024","Venue":"LH Lordship Rec Hub","Category":"Tool (non-EEE)","fldsize":"6.3","fldtype":"24","id":"4436","Outcome":"fixed","id":"4436"}},
{"type": "Feature","geometry":{"coordinates": [-0.173253,51.641491],"type":"Point"},"properties":{"Address":"EN5 1DE","name":"roxana","hfrecnum":"6421","TimeAndDate":"Sat Aug 03 2024","Venue":"LH Lordship Rec Hub","Category":"Tool (non-EEE)","fldsize":"6.3","fldtype":"24","id":"4435","Outcome":"diagnosed","id":"4435"}},
{"type": "Feature","geometry":{"coordinates": [-0.094647,51.602114],"type":"Point"},"properties":{"Address":"N22 5EH","name":"Shantanu","hfrecnum":"6422","TimeAndDate":"Sat Aug 03 2024","Venue":"LH Lordship Rec Hub","Category":"Kettle","fldsize":"6.3","fldtype":"24","id":"4434","Outcome":"fixed","id":"4434"}},
{"type": "Feature","geometry":{"coordinates": [-0.05903,51.590092],"type":"Point"},"properties":{"Address":"N17 9FQ","name":"Aurea","hfrecnum":"6423","TimeAndDate":"Sat Aug 03 2024","Venue":"LH Lordship Rec Hub","Category":"Fan","fldsize":"6.3","fldtype":"24","id":"4433","Outcome":"fixed","id":"4433"}},
{"type": "Feature","geometry":{"coordinates": [-0.063016,51.578863],"type":"Point"},"properties":{"Address":"N15 6BZ","name":"Steven","hfrecnum":"6426","TimeAndDate":"Sat Aug 03 2024","Venue":"LH Lordship Rec Hub","Category":"Hi-Fi integrated","fldsize":"6.3","fldtype":"24","id":"4430","Outcome":"Unable to fix","id":"4430"}},
{"type": "Feature","geometry":{"coordinates": [-0.078018,51.595577],"type":"Point"},"properties":{"Address":"N17 6HH","name":"Patrick","hfrecnum":"6427","TimeAndDate":"Sat Aug 03 2024","Venue":"LH Lordship Rec Hub","Category":"Earbuds/Hphone","fldsize":"6.3","fldtype":"24","id":"4429","Outcome":"Unable to fix","id":"4429"}},
{"type": "Feature","geometry":{"coordinates": [-0.096359,51.580856],"type":"Point"},"properties":{"Address":"N4 1LE","name":"Lizzy","hfrecnum":"6428","TimeAndDate":"Sat Aug 03 2024","Venue":"LH Lordship Rec Hub","Category":"Toaster","fldsize":"6.3","fldtype":"24","id":"4428","Outcome":"partial fix","id":"4428"}},
{"type": "Feature","geometry":{"coordinates": [-0.189832,51.605233],"type":"Point"},"properties":{"Address":"N3 1LH","name":"Neelesh","hfrecnum":"6429","TimeAndDate":"Sat Aug 03 2024","Venue":"LH Lordship Rec Hub","Category":"Blender","fldsize":"6.3","fldtype":"24","id":"4427","Outcome":"Self-repair","id":"4427"}},
{"type": "Feature","geometry":{"coordinates": [-0.086643,51.58881],"type":"Point"},"properties":{"Address":"N17 6PN","name":"Kate","hfrecnum":"6431","TimeAndDate":"Sat Aug 03 2024","Venue":"LH Lordship Rec Hub","Category":"Clothing/textile","fldsize":"6.3","fldtype":"24","id":"4425","Outcome":"diagnosed","id":"4425"}},
{"type": "Feature","geometry":{"coordinates": [-0.087004,51.592251],"type":"Point"},"properties":{"Address":"N17 6NU","name":"Isha Turay","hfrecnum":"6432","TimeAndDate":"Sat Aug 03 2024","Venue":"LH Lordship Rec Hub","Category":"Laptop small","fldsize":"6.3","fldtype":"24","id":"4424","Outcome":"fixed","id":"4424"}},
{"type": "Feature","geometry":{"coordinates": [-0.144241,51.597369],"type":"Point"},"properties":{"Address":"N10 2EH","name":"David","hfrecnum":"6310","TimeAndDate":"Sat Jul 20 2024","Venue":"BWF Broadwater Farm","Category":"Paper shredder","fldsize":"6.3","fldtype":"24","id":"4420","Outcome":"fixed","id":"4420"}},
{"type": "Feature","geometry":{"coordinates": [-0.0825,51.594641],"type":"Point"},"properties":{"Address":"N17 6Lp","name":"Glasmie","hfrecnum":"6313","TimeAndDate":"Sat Jul 20 2024","Venue":"BWF Broadwater Farm","Category":"Clothing/textile","fldsize":"6.3","fldtype":"24","id":"4417","Outcome":"fixed","id":"4417"}},
{"type": "Feature","geometry":{"coordinates": [-0.084505,51.595717],"type":"Point"},"properties":{"Address":"N17 6HG","name":"Glasmie","hfrecnum":"6314","TimeAndDate":"Sat Jul 20 2024","Venue":"BWF Broadwater Farm","Category":"Clothing/textile","fldsize":"6.3","fldtype":"24","id":"4416","Outcome":"fixed","id":"4416"}},
{"type": "Feature","geometry":{"coordinates": [-0.099261,51.554214],"type":"Point"},"properties":{"Address":"N51SH","name":"Quentin","hfrecnum":"6315","TimeAndDate":"Sat Jul 20 2024","Venue":"BWF Broadwater Farm","Category":"Lamp","fldsize":"6.3","fldtype":"24","id":"4415","Outcome":"diagnosed","id":"4415"}},
{"type": "Feature","geometry":{"coordinates": [-0.074052,51.526744],"type":"Point"},"properties":{"Address":"E27LE","name":"Barbara","hfrecnum":"6316","TimeAndDate":"Sat Jul 20 2024","Venue":"BWF Broadwater Farm","Category":"Laptop small","fldsize":"6.3","fldtype":"24","id":"4414","Outcome":"diagnosed","id":"4414"}},
{"type": "Feature","geometry":{"coordinates": [-0.124363,51.568178],"type":"Point"},"properties":{"Address":"N19 3HS","name":"Hannah","hfrecnum":"6317","TimeAndDate":"Sat Jul 20 2024","Venue":"BWF Broadwater Farm","Category":"Hair & Beauty item","fldsize":"6.3","fldtype":"24","id":"4413","Outcome":"fixed","id":"4413"}},
{"type": "Feature","geometry":{"coordinates": [-0.063764,51.593524],"type":"Point"},"properties":{"Address":"N17 9BG","name":"Rebecca","hfrecnum":"6319","TimeAndDate":"Sat Jul 20 2024","Venue":"BWF Broadwater Farm","Category":"Decorative or safety lights","fldsize":"6.3","fldtype":"24","id":"4411","Outcome":"fixed","id":"4411"}},
{"type": "Feature","geometry":{"coordinates": [-0.095936,51.602728],"type":"Point"},"properties":{"Address":"N22 5EG","name":"Marcus","hfrecnum":"6321","TimeAndDate":"Sat Jul 20 2024","Venue":"BWF Broadwater Farm","Category":"VHS/DVD","fldsize":"6.3","fldtype":"24","id":"4409","Outcome":"Unable to fix","id":"4409"}},
{"type": "Feature","geometry":{"coordinates": [-0.084505,51.595717],"type":"Point"},"properties":{"Address":"N17 6HG","name":"Ben","hfrecnum":"6324","TimeAndDate":"Sat Jul 20 2024","Venue":"BWF Broadwater Farm","Category":"Small kitchen item","fldsize":"6.3","fldtype":"24","id":"4406","Outcome":"fixed","id":"4406"}},
{"type": "Feature","geometry":{"coordinates": [-0.084505,51.595717],"type":"Point"},"properties":{"Address":"N17 6HG","name":"","hfrecnum":"6325","TimeAndDate":"Sat Jul 20 2024","Venue":"BWF Broadwater Farm","Category":"Tool (non-EEE)","fldsize":"6.3","fldtype":"24","id":"4405","Outcome":"fixed","id":"4405"}},
{"type": "Feature","geometry":{"coordinates": [-0.105364,51.589665],"type":"Point"},"properties":{"Address":"","name":"Hannah","hfrecnum":"6210","TimeAndDate":"Sun Jul 14 2024","Venue":"AG Turnpike Lane","Category":"Hair & Beauty item","fldsize":"6.3","fldtype":"24","id":"4398","Outcome":"fixed","id":"4398"}},
{"type": "Feature","geometry":{"coordinates": [-0.108057,51.59085],"type":"Point"},"properties":{"Address":"N8 0PP","name":"Mary","hfrecnum":"6211","TimeAndDate":"Sun Jul 14 2024","Venue":"AG Turnpike Lane","Category":"Coffee Maker","fldsize":"6.3","fldtype":"24","id":"4397","Outcome":"Unable to fix","id":"4397"}},
{"type": "Feature","geometry":{"coordinates": [-0.108057,51.59085],"type":"Point"},"properties":{"Address":"N8 0PP","name":"Mary","hfrecnum":"6212","TimeAndDate":"Sun Jul 14 2024","Venue":"AG Turnpike Lane","Category":"Lamp","fldsize":"6.3","fldtype":"24","id":"4396","Outcome":"fixed","id":"4396"}},
{"type": "Feature","geometry":{"coordinates": [-0.124471,51.591489],"type":"Point"},"properties":{"Address":"N8 7LL","name":"Joan","hfrecnum":"6213","TimeAndDate":"Sun Jul 14 2024","Venue":"AG Turnpike Lane","Category":"Lamp","fldsize":"6.3","fldtype":"24","id":"4395","Outcome":"fixed","id":"4395"}},
{"type": "Feature","geometry":{"coordinates": [-0.130732,51.581409],"type":"Point"},"properties":{"Address":"N8 8RJ","name":"Fran","hfrecnum":"6214","TimeAndDate":"Sun Jul 14 2024","Venue":"AG Turnpike Lane","Category":"TV/gaming accessory","fldsize":"6.3","fldtype":"24","id":"4394","Outcome":"diagnosed","id":"4394"}},
{"type": "Feature","geometry":{"coordinates": [-0.086296,51.550343],"type":"Point"},"properties":{"Address":"N1 4RD","name":"Jasmine","hfrecnum":"6215","TimeAndDate":"Sun Jul 14 2024","Venue":"AG Turnpike Lane","Category":"none yet","fldsize":"6.3","fldtype":"24","id":"4393","Outcome":"fixed","id":"4393"}},
{"type": "Feature","geometry":{"coordinates": [-0.096897,51.592594],"type":"Point"},"properties":{"Address":"n22 6as","name":"Subi","hfrecnum":"6216","TimeAndDate":"Sun Jul 14 2024","Venue":"AG Turnpike Lane","Category":"Garden Elec","fldsize":"6.3","fldtype":"24","id":"4392","Outcome":"fixed","id":"4392"}},
{"type": "Feature","geometry":{"coordinates": [-0.097329,51.597023],"type":"Point"},"properties":{"Address":"N22 6JN","name":"Chrystine","hfrecnum":"6217","TimeAndDate":"Sun Jul 14 2024","Venue":"AG Turnpike Lane","Category":"Laptop medium","fldsize":"6.3","fldtype":"24","id":"4391","Outcome":"diagnosed","id":"4391"}},
{"type": "Feature","geometry":{"coordinates": [-0.118635,51.600657],"type":"Point"},"properties":{"Address":"N22 7DA","name":"Bolu","hfrecnum":"6219","TimeAndDate":"Sun Jul 14 2024","Venue":"AG Turnpike Lane","Category":"Power tool","fldsize":"6.3","fldtype":"24","id":"4389","Outcome":"diagnosed","id":"4389"}},
{"type": "Feature","geometry":{"coordinates": [-0.104197,51.583693],"type":"Point"},"properties":{"Address":"N8 0AJ","name":"Fiona","hfrecnum":"6221","TimeAndDate":"Sun Jul 14 2024","Venue":"AG Turnpike Lane","Category":"Lamp","fldsize":"6.3","fldtype":"24","id":"4387","Outcome":"fixed","id":"4387"}},
{"type": "Feature","geometry":{"coordinates": [-0.104197,51.583693],"type":"Point"},"properties":{"Address":"N8 0AJ","name":"Fiona","hfrecnum":"6222","TimeAndDate":"Sun Jul 14 2024","Venue":"AG Turnpike Lane","Category":"Lamp","fldsize":"6.3","fldtype":"24","id":"4386","Outcome":"fixed","id":"4386"}},
{"type": "Feature","geometry":{"coordinates": [-0.117976,51.578516],"type":"Point"},"properties":{"Address":"N8 9HR","name":"Erica","hfrecnum":"6223","TimeAndDate":"Sun Jul 14 2024","Venue":"AG Turnpike Lane","Category":"Hair & Beauty item","fldsize":"6.3","fldtype":"24","id":"4385","Outcome":"fixed","id":"4385"}},
{"type": "Feature","geometry":{"coordinates": [-0.114899,51.58906],"type":"Point"},"properties":{"Address":"N8 7QE","name":"Kathryn","hfrecnum":"6226","TimeAndDate":"Sun Jul 14 2024","Venue":"AG Turnpike Lane","Category":"Hi-Fi integrated","fldsize":"6.3","fldtype":"24","id":"4382","Outcome":"diagnosed","id":"4382"}},
{"type": "Feature","geometry":{"coordinates": [-0.104419,51.583921],"type":"Point"},"properties":{"Address":"N8 0Al","name":"Steve","hfrecnum":"6230","TimeAndDate":"Sun Jul 14 2024","Venue":"AG Turnpike Lane","Category":"Fan Heater","fldsize":"6.3","fldtype":"24","id":"4378","Outcome":"Self-repair","id":"4378"}},
{"type": "Feature","geometry":{"coordinates": [-0.083149,51.600137],"type":"Point"},"properties":{"Address":"N17 7DD","name":"Amelia","hfrecnum":"6111","TimeAndDate":"Sat Jul 06 2024","Venue":"LH Lordship Rec Hub","Category":"Power tool","fldsize":"6.3","fldtype":"24","id":"4371","Outcome":"fixed","id":"4371"}},
{"type": "Feature","geometry":{"coordinates": [-0.097329,51.597023],"type":"Point"},"properties":{"Address":"N22 6JN","name":"Chrystine","hfrecnum":"6112","TimeAndDate":"Sat Jul 06 2024","Venue":"LH Lordship Rec Hub","Category":"Laptop medium","fldsize":"6.3","fldtype":"24","id":"4370","Outcome":"diagnosed","id":"4370"}},
{"type": "Feature","geometry":{"coordinates": [-0.059008,51.595703],"type":"Point"},"properties":{"Address":"N17 9RJ","name":"Jana","hfrecnum":"6113","TimeAndDate":"Sat Jul 06 2024","Venue":"LH Lordship Rec Hub","Category":"Printer/scanner","fldsize":"6.3","fldtype":"24","id":"4369","Outcome":"diagnosed","id":"4369"}},
{"type": "Feature","geometry":{"coordinates": [-0.097329,51.597023],"type":"Point"},"properties":{"Address":"N22 6JN","name":"Chrystine","hfrecnum":"6114","TimeAndDate":"Sat Jul 06 2024","Venue":"LH Lordship Rec Hub","Category":"Laptop medium","fldsize":"6.3","fldtype":"24","id":"4368","Outcome":"diagnosed","id":"4368"}},
{"type": "Feature","geometry":{"coordinates": [-0.086167,51.58882],"type":"Point"},"properties":{"Address":"N17 6PP","name":"Leonie","hfrecnum":"6115","TimeAndDate":"Sat Jul 06 2024","Venue":"LH Lordship Rec Hub","Category":"Lamp","fldsize":"6.3","fldtype":"24","id":"4367","Outcome":"Unable to fix","id":"4367"}},
{"type": "Feature","geometry":{"coordinates": [-0.154082,51.57864],"type":"Point"},"properties":{"Address":"N6 4DP","name":"Rona","hfrecnum":"6116","TimeAndDate":"Sat Jul 06 2024","Venue":"LH Lordship Rec Hub","Category":"Laptop small","fldsize":"6.3","fldtype":"24","id":"4366","Outcome":"fixed","id":"4366"}},
{"type": "Feature","geometry":{"coordinates": [-0.130732,51.581409],"type":"Point"},"properties":{"Address":"N8 8RJ","name":"Fran","hfrecnum":"6117","TimeAndDate":"Sat Jul 06 2024","Venue":"LH Lordship Rec Hub","Category":"Small kitchen item","fldsize":"6.3","fldtype":"24","id":"4365","Outcome":"fixed","id":"4365"}},
{"type": "Feature","geometry":{"coordinates": [-0.059008,51.595703],"type":"Point"},"properties":{"Address":"N17 9RJ","name":"Jana","hfrecnum":"6118","TimeAndDate":"Sat Jul 06 2024","Venue":"LH Lordship Rec Hub","Category":"Printer/scanner","fldsize":"6.3","fldtype":"24","id":"4364","Outcome":"fixed","id":"4364"}},
{"type": "Feature","geometry":{"coordinates": [-0.059008,51.595703],"type":"Point"},"properties":{"Address":"N17 9RJ","name":"Jana","hfrecnum":"6120","TimeAndDate":"Sat Jul 06 2024","Venue":"LH Lordship Rec Hub","Category":"Printer/scanner","fldsize":"6.3","fldtype":"24","id":"4362","Outcome":"diagnosed","id":"4362"}},
{"type": "Feature","geometry":{"coordinates": [-0.078593,51.594589],"type":"Point"},"properties":{"Address":"N17 6JH","name":"Leila","hfrecnum":"6121","TimeAndDate":"Sat Jul 06 2024","Venue":"LH Lordship Rec Hub","Category":"Power tool","fldsize":"6.3","fldtype":"24","id":"4361","Outcome":"fixed","id":"4361"}},
{"type": "Feature","geometry":{"coordinates": [-0.080813,51.590237],"type":"Point"},"properties":{"Address":"N17 6DX","name":"Imran","hfrecnum":"6010","TimeAndDate":"Sat Jun 29 2024","Venue":"SchW Willow School","Category":"Garden Elec","fldsize":"6.3","fldtype":"24","id":"4354","Outcome":"fixed","id":"4354"}},
{"type": "Feature","geometry":{"coordinates": [-0.080813,51.590237],"type":"Point"},"properties":{"Address":"N17 6DX","name":"Imran","hfrecnum":"6011","TimeAndDate":"Sat Jun 29 2024","Venue":"SchW Willow School","Category":"Garden Elec","fldsize":"6.3","fldtype":"24","id":"4353","Outcome":"partial fix","id":"4353"}},
{"type": "Feature","geometry":{"coordinates": [-0.082169,51.596068],"type":"Point"},"properties":{"Address":"N17 6HW","name":"gladys","hfrecnum":"6012","TimeAndDate":"Sat Jun 29 2024","Venue":"SchW Willow School","Category":"Toy","fldsize":"6.3","fldtype":"24","id":"4352","Outcome":"fixed","id":"4352"}},
{"type": "Feature","geometry":{"coordinates": [-0.082169,51.596068],"type":"Point"},"properties":{"Address":"N17 6HW","name":"gladys","hfrecnum":"6013","TimeAndDate":"Sat Jun 29 2024","Venue":"SchW Willow School","Category":"Toy","fldsize":"6.3","fldtype":"24","id":"4351","Outcome":"fixed","id":"4351"}},
{"type": "Feature","geometry":{"coordinates": [-0.082169,51.596068],"type":"Point"},"properties":{"Address":"N17 6HW","name":"gladys","hfrecnum":"6014","TimeAndDate":"Sat Jun 29 2024","Venue":"SchW Willow School","Category":"Toy","fldsize":"6.3","fldtype":"24","id":"4350","Outcome":"fixed","id":"4350"}},
{"type": "Feature","geometry":{"coordinates": [-0.061669,51.596277],"type":"Point"},"properties":{"Address":"N17 9RT","name":"Jonathan","hfrecnum":"5910","TimeAndDate":"Sat Jun 15 2024","Venue":"BWF Broadwater Farm","Category":"Garden Elec","fldsize":"6.3","fldtype":"24","id":"4347","Outcome":"fixed","id":"4347"}},
{"type": "Feature","geometry":{"coordinates": [-0.09641,51.588009],"type":"Point"},"properties":{"Address":"N15 3PS","name":"Stephanie","hfrecnum":"5911","TimeAndDate":"Sat Jun 15 2024","Venue":"BWF Broadwater Farm","Category":"Small kitchen item","fldsize":"6.3","fldtype":"24","id":"4346","Outcome":"fixed","id":"4346"}},
{"type": "Feature","geometry":{"coordinates": [-0.155791,51.598819],"type":"Point"},"properties":{"Address":"N10 1JB","name":"Chris","hfrecnum":"5912","TimeAndDate":"Sat Jun 15 2024","Venue":"BWF Broadwater Farm","Category":"Toaster","fldsize":"6.3","fldtype":"24","id":"4345","Outcome":"fixed","id":"4345"}},
{"type": "Feature","geometry":{"coordinates": [-0.081517,51.595362],"type":"Point"},"properties":{"Address":"N17 6HU","name":"Ganna","hfrecnum":"5913","TimeAndDate":"Sat Jun 15 2024","Venue":"BWF Broadwater Farm","Category":"Coffee Maker","fldsize":"6.3","fldtype":"24","id":"4344","Outcome":"partial fix","id":"4344"}},
{"type": "Feature","geometry":{"coordinates": [-0.074052,51.526744],"type":"Point"},"properties":{"Address":"E2 7LE","name":"Barbara","hfrecnum":"5914","TimeAndDate":"Sat Jun 15 2024","Venue":"BWF Broadwater Farm","Category":"Coffee Maker","fldsize":"6.3","fldtype":"24","id":"4343","Outcome":"Unable to fix","id":"4343"}},
{"type": "Feature","geometry":{"coordinates": [-0.097329,51.597023],"type":"Point"},"properties":{"Address":"N226jn","name":"Chrystine","hfrecnum":"5915","TimeAndDate":"Sat Jun 15 2024","Venue":"BWF Broadwater Farm","Category":"Small kitchen item","fldsize":"6.3","fldtype":"24","id":"4342","Outcome":"fixed","id":"4342"}},
{"type": "Feature","geometry":{"coordinates": [-0.084505,51.595717],"type":"Point"},"properties":{"Address":"N17 6HG","name":"internal","hfrecnum":"5916","TimeAndDate":"Sat Jun 15 2024","Venue":"BWF Broadwater Farm","Category":"Kettle","fldsize":"6.3","fldtype":"24","id":"4341","Outcome":"Not in the database","id":"4341"}},
{"type": "Feature","geometry":{"coordinates": [-0.084505,51.595717],"type":"Point"},"properties":{"Address":"N17 6HG","name":"Fusion BWF","hfrecnum":"5917","TimeAndDate":"Sat Jun 15 2024","Venue":"BWF Broadwater Farm","Category":"Small home electrical","fldsize":"6.3","fldtype":"24","id":"4340","Outcome":"fixed","id":"4340"}},
{"type": "Feature","geometry":{"coordinates": [-0.084505,51.595717],"type":"Point"},"properties":{"Address":"N17 6HG","name":"Alexia","hfrecnum":"5918","TimeAndDate":"Sat Jun 15 2024","Venue":"BWF Broadwater Farm","Category":"Blender","fldsize":"6.3","fldtype":"24","id":"4339","Outcome":"Unable to fix","id":"4339"}},
{"type": "Feature","geometry":{"coordinates": [-0.074052,51.526744],"type":"Point"},"properties":{"Address":"e2 7le","name":"barbara","hfrecnum":"5810","TimeAndDate":"Sun Jun 09 2024","Venue":"AG Turnpike Lane","Category":"Lamp","fldsize":"6.3","fldtype":"24","id":"4334","Outcome":"fixed","id":"4334"}},
{"type": "Feature","geometry":{"coordinates": [-0.097329,51.597023],"type":"Point"},"properties":{"Address":"N22 6JN","name":"Hana","hfrecnum":"5815","TimeAndDate":"Sun Jun 09 2024","Venue":"AG Turnpike Lane","Category":"Clothing/textile","fldsize":"6.3","fldtype":"24","id":"4329","Outcome":"Self-repair","id":"4329"}},
{"type": "Feature","geometry":{"coordinates": [-0.097329,51.597023],"type":"Point"},"properties":{"Address":"N22 6JN","name":"Hana","hfrecnum":"5816","TimeAndDate":"Sun Jun 09 2024","Venue":"AG Turnpike Lane","Category":"Portable radio","fldsize":"6.3","fldtype":"24","id":"4328","Outcome":"diagnosed","id":"4328"}},
{"type": "Feature","geometry":{"coordinates": [-0.121459,51.586192],"type":"Point"},"properties":{"Address":"N8 7PG","name":"Richard","hfrecnum":"5817","TimeAndDate":"Sun Jun 09 2024","Venue":"AG Turnpike Lane","Category":"Hi-Fi separates","fldsize":"6.3","fldtype":"24","id":"4327","Outcome":"diagnosed","id":"4327"}},
{"type": "Feature","geometry":{"coordinates": [-0.086643,51.58881],"type":"Point"},"properties":{"Address":"N17 6PN","name":"Kate","hfrecnum":"5819","TimeAndDate":"Sun Jun 09 2024","Venue":"AG Turnpike Lane","Category":"Clothing/textile","fldsize":"6.3","fldtype":"24","id":"4325","Outcome":"fixed","id":"4325"}},
{"type": "Feature","geometry":{"coordinates": [-0.140276,51.584226],"type":"Point"},"properties":{"Address":"N10 3LB","name":"Vivien","hfrecnum":"5820","TimeAndDate":"Sun Jun 09 2024","Venue":"AG Turnpike Lane","Category":"Portable radio","fldsize":"6.3","fldtype":"24","id":"4324","Outcome":"fixed","id":"4324"}},
{"type": "Feature","geometry":{"coordinates": [-0.116346,51.608156],"type":"Point"},"properties":{"Address":"N22 8NN","name":"rachel","hfrecnum":"5821","TimeAndDate":"Sun Jun 09 2024","Venue":"AG Turnpike Lane","Category":"Lamp","fldsize":"6.3","fldtype":"24","id":"4323","Outcome":"Unable to fix","id":"4323"}},
{"type": "Feature","geometry":{"coordinates": [-0.088578,51.59912],"type":"Point"},"properties":{"Address":"N17 7PR","name":"Valeria","hfrecnum":"5822","TimeAndDate":"Sun Jun 09 2024","Venue":"AG Turnpike Lane","Category":"Misc (non-EEE)","fldsize":"6.3","fldtype":"24","id":"4322","Outcome":"fixed","id":"4322"}},
{"type": "Feature","geometry":{"coordinates": [-0.096928,51.591081],"type":"Point"},"properties":{"Address":"N22 6AB","name":"Max","hfrecnum":"5823","TimeAndDate":"Sun Jun 09 2024","Venue":"AG Turnpike Lane","Category":"Misc (non-EEE)","fldsize":"6.3","fldtype":"24","id":"4321","Outcome":"fixed","id":"4321"}},
{"type": "Feature","geometry":{"coordinates": [-0.105364,51.589665],"type":"Point"},"properties":{"Address":"N8 0EP","name":"Hayley","hfrecnum":"5824","TimeAndDate":"Sun Jun 09 2024","Venue":"AG Turnpike Lane","Category":"Small kitchen item","fldsize":"6.3","fldtype":"24","id":"4320","Outcome":"diagnosed","id":"4320"}},
{"type": "Feature","geometry":{"coordinates": [-0.105364,51.589665],"type":"Point"},"properties":{"Address":"N8 0EP","name":"Hayley","hfrecnum":"5825","TimeAndDate":"Sun Jun 09 2024","Venue":"AG Turnpike Lane","Category":"Watch/clock","fldsize":"6.3","fldtype":"24","id":"4319","Outcome":"diagnosed","id":"4319"}},
{"type": "Feature","geometry":{"coordinates": [-0.105364,51.589665],"type":"Point"},"properties":{"Address":"N8 0EP","name":"Chris","hfrecnum":"5826","TimeAndDate":"Sun Jun 09 2024","Venue":"AG Turnpike Lane","Category":"Watch/clock","fldsize":"6.3","fldtype":"24","id":"4318","Outcome":"fixed","id":"4318"}},
{"type": "Feature","geometry":{"coordinates": [-0.105364,51.589665],"type":"Point"},"properties":{"Address":"N8 0EP","name":"Svetlana","hfrecnum":"5827","TimeAndDate":"Sun Jun 09 2024","Venue":"AG Turnpike Lane","Category":"Toy","fldsize":"6.3","fldtype":"24","id":"4317","Outcome":"diagnosed","id":"4317"}},
{"type": "Feature","geometry":{"coordinates": [-0.084505,51.595717],"type":"Point"},"properties":{"Address":"N17 6HG","name":"Augustine","hfrecnum":"5710","TimeAndDate":"Sat Jun 01 2024","Venue":"LH Lordship Rec Hub","Category":"Printer/scanner","fldsize":"6.3","fldtype":"24","id":"4312","Outcome":"Beyond Repair","id":"4312"}},
{"type": "Feature","geometry":{"coordinates": [-0.084505,51.595717],"type":"Point"},"properties":{"Address":"N17 6HG","name":"Rose","hfrecnum":"5711","TimeAndDate":"Sat Jun 01 2024","Venue":"LH Lordship Rec Hub","Category":"Hi-Fi separates","fldsize":"6.3","fldtype":"24","id":"4311","Outcome":"diagnosed","id":"4311"}},
{"type": "Feature","geometry":{"coordinates": [-0.087004,51.592251],"type":"Point"},"properties":{"Address":"N17 6NU","name":"Joao","hfrecnum":"5712","TimeAndDate":"Sat Jun 01 2024","Venue":"LH Lordship Rec Hub","Category":"Hair & Beauty item","fldsize":"6.3","fldtype":"24","id":"4310","Outcome":"fixed","id":"4310"}},
{"type": "Feature","geometry":{"coordinates": [-0.074142,51.592553],"type":"Point"},"properties":{"Address":"N17 6YJ","name":"Coral","hfrecnum":"5713","TimeAndDate":"Sat Jun 01 2024","Venue":"LH Lordship Rec Hub","Category":"Hi-Fi separates","fldsize":"6.3","fldtype":"24","id":"4309","Outcome":"partial fix","id":"4309"}},
{"type": "Feature","geometry":{"coordinates": [-0.08594,51.591118],"type":"Point"},"properties":{"Address":"N17 6LJ","name":"Chris","hfrecnum":"5714","TimeAndDate":"Sat Jun 01 2024","Venue":"LH Lordship Rec Hub","Category":"Large home electrical","fldsize":"6.3","fldtype":"24","id":"4308","Outcome":"fixed","id":"4308"}},
{"type": "Feature","geometry":{"coordinates": [-0.0895,51.57784],"type":"Point"},"properties":{"Address":"N4 1PD","name":"SUE","hfrecnum":"5715","TimeAndDate":"Sat Jun 01 2024","Venue":"LH Lordship Rec Hub","Category":"Toaster","fldsize":"6.3","fldtype":"24","id":"4307","Outcome":"Unable to fix","id":"4307"}},
{"type": "Feature","geometry":{"coordinates": [-0.097329,51.597023],"type":"Point"},"properties":{"Address":"N22 6JN","name":"Chrystine","hfrecnum":"5716","TimeAndDate":"Sat Jun 01 2024","Venue":"LH Lordship Rec Hub","Category":"Small kitchen item","fldsize":"6.3","fldtype":"24","id":"4306","Outcome":"partial fix","id":"4306"}},
{"type": "Feature","geometry":{"coordinates": [-0.089502,51.617713],"type":"Point"},"properties":{"Address":"N13 5EA","name":"Lorraine","hfrecnum":"5717","TimeAndDate":"Sat Jun 01 2024","Venue":"LH Lordship Rec Hub","Category":"Sewing machine","fldsize":"6.3","fldtype":"24","id":"4305","Outcome":"fixed","id":"4305"}},
{"type": "Feature","geometry":{"coordinates": [-0.0895,51.57784],"type":"Point"},"properties":{"Address":"N4 1PD","name":"SUE","hfrecnum":"5718","TimeAndDate":"Sat Jun 01 2024","Venue":"LH Lordship Rec Hub","Category":"Small home electrical","fldsize":"6.3","fldtype":"24","id":"4304","Outcome":"Unable to fix","id":"4304"}},
{"type": "Feature","geometry":{"coordinates": [-0.110963,51.574387],"type":"Point"},"properties":{"Address":"N4 4QA","name":"Iris","hfrecnum":"5719","TimeAndDate":"Sat Jun 01 2024","Venue":"LH Lordship Rec Hub","Category":"Small kitchen item","fldsize":"6.3","fldtype":"24","id":"4303","Outcome":"partial fix","id":"4303"}},
{"type": "Feature","geometry":{"coordinates": [-0.089502,51.617713],"type":"Point"},"properties":{"Address":"N13 5EA","name":"Lorraine","hfrecnum":"5720","TimeAndDate":"Sat Jun 01 2024","Venue":"LH Lordship Rec Hub","Category":"Sewing machine","fldsize":"6.3","fldtype":"24","id":"4302","Outcome":"fixed","id":"4302"}},
{"type": "Feature","geometry":{"coordinates": [-0.075461,51.595857],"type":"Point"},"properties":{"Address":"N17 6EP","name":"Penny","hfrecnum":"5721","TimeAndDate":"Sat Jun 01 2024","Venue":"LH Lordship Rec Hub","Category":"Coffee Maker","fldsize":"6.3","fldtype":"24","id":"4301","Outcome":"Unable to fix","id":"4301"}},
{"type": "Feature","geometry":{"coordinates": [-0.182152,51.617821],"type":"Point"},"properties":{"Address":"N12 8RY","name":"Vitali","hfrecnum":"5722","TimeAndDate":"Sat Jun 01 2024","Venue":"LH Lordship Rec Hub","Category":"Hi-Fi separates","fldsize":"6.3","fldtype":"24","id":"4300","Outcome":"Unable to fix","id":"4300"}},
{"type": "Feature","geometry":{"coordinates": [-0.148454,51.587232],"type":"Point"},"properties":{"Address":"N10 3JA","name":"Vikas","hfrecnum":"5724","TimeAndDate":"Sat Jun 01 2024","Venue":"LH Lordship Rec Hub","Category":"Iron","fldsize":"6.3","fldtype":"24","id":"4298","Outcome":"Beyond Repair","id":"4298"}},
{"type": "Feature","geometry":{"coordinates": [-0.148454,51.587232],"type":"Point"},"properties":{"Address":"N10 3JA","name":"Priya","hfrecnum":"5725","TimeAndDate":"Sat Jun 01 2024","Venue":"LH Lordship Rec Hub","Category":"Sewing machine","fldsize":"6.3","fldtype":"24","id":"4297","Outcome":"fixed","id":"4297"}},