{"type": "Feature","geometry":{"coordinates": [-0.104215,51.56308],"type":"Point"},"properties":{"Address":"N42RA","name":"Claire","hfrecnum":"4103","Event":"Broadwater Farm","fldsize":"6.3","fldtype":"fixed","id":"4103","_umap_options":{"showLabel": 0}}},
{"type": "Feature","geometry":{"coordinates": [-0.271898,51.583887],"type":"Point"},"properties":{"Address":"NW99LT","name":"Bhavin","hfrecnum":"4102","Event":"Broadwater Farm","fldsize":"6.3","fldtype":"diagnosed","id":"4102","_umap_options":{"showLabel": 0}}},
{"type": "Feature","geometry":{"coordinates": [-0.271898,51.583887],"type":"Point"},"properties":{"Address":"NW99LT","name":"Bhavin","hfrecnum":"4101","Event":"Broadwater Farm","fldsize":"6.3","fldtype":"diagnosed","id":"4101","_umap_options":{"showLabel": 0}}},
{"type": "Feature","geometry":{"coordinates": [-0.084505,51.595717],"type":"Point"},"properties":{"Address":"N176HG","name":"Ganna","hfrecnum":"4100","Event":"Broadwater Farm","fldsize":"6.3","fldtype":"fixed","id":"4100","_umap_options":{"showLabel": 0}}},
{"type": "Feature","geometry":{"coordinates": [-0.267731,51.599329],"type":"Point"},"properties":{"Address":"HA85LF","name":"Maksim","hfrecnum":"4099","Event":"Broadwater Farm","fldsize":"6.3","fldtype":"diagnosed","id":"4099","_umap_options":{"showLabel": 0}}},
{"type": "Feature","geometry":{"coordinates": [-0.267731,51.599329],"type":"Point"},"properties":{"Address":"HA85LF","name":"Maksim","hfrecnum":"4098","Event":"Broadwater Farm","fldsize":"6.3","fldtype":"diagnosed","id":"4098","_umap_options":{"showLabel": 0}}},
{"type": "Feature","geometry":{"coordinates": [-0.267731,51.599329],"type":"Point"},"properties":{"Address":"HA85LF","name":"Maksim","hfrecnum":"4097","Event":"Broadwater Farm","fldsize":"6.3","fldtype":"fixed","id":"4097","_umap_options":{"showLabel": 0}}},
{"type": "Feature","geometry":{"coordinates": [-0.267731,51.599329],"type":"Point"},"properties":{"Address":"HA85LF","name":"Maksim","hfrecnum":"4096","Event":"Broadwater Farm","fldsize":"6.3","fldtype":"diagnosed","id":"4096","_umap_options":{"showLabel": 0}}},
{"type": "Feature","geometry":{"coordinates": [-0.0391,51.553395],"type":"Point"},"properties":{"Address":"E50HR","name":"Edward","hfrecnum":"4095","Event":"Broadwater Farm","fldsize":"6.3","fldtype":"NOT FAULTY","id":"4095","_umap_options":{"showLabel": 0}}},
{"type": "Feature","geometry":{"coordinates": [-0.073912,51.545466],"type":"Point"},"properties":{"Address":"E83DT","name":"Joanne","hfrecnum":"4094","Event":"Broadwater Farm","fldsize":"6.3","fldtype":"diagnosed","id":"4094","_umap_options":{"showLabel": 0}}},
{"type": "Feature","geometry":{"coordinates": [-0.054817,51.540376],"type":"Point"},"properties":{"Address":"E83RF","name":"Kate","hfrecnum":"4093","Event":"Broadwater Farm","fldsize":"6.3","fldtype":"fixed","id":"4093","_umap_options":{"showLabel": 0}}},
{"type": "Feature","geometry":{"coordinates": [-0.173253,51.641491],"type":"Point"},"properties":{"Address":"EN51DE","name":"roxana","hfrecnum":"4092","Event":"Broadwater Farm","fldsize":"6.3","fldtype":"diagnosed","id":"4092","_umap_options":{"showLabel": 0}}},
{"type": "Feature","geometry":{"coordinates": [-0.192649,51.617485],"type":"Point"},"properties":{"Address":"N127AA","name":"Taizo","hfrecnum":"4091","Event":"Broadwater Farm","fldsize":"6.3","fldtype":"fixed","id":"4091","_umap_options":{"showLabel": 0}}},
{"type": "Feature","geometry":{"coordinates": [-0.080703,51.601662],"type":"Point"},"properties":{"Address":"N177AU","name":"Athanasaki","hfrecnum":"4090","Event":"Broadwater Farm","fldsize":"6.3","fldtype":"diagnosed","id":"4090","_umap_options":{"showLabel": 0}}},
{"type": "Feature","geometry":{"coordinates": [-0.081228,51.590232],"type":"Point"},"properties":{"Address":"N176DU","name":"Marvin","hfrecnum":"4083","Event":"Lordship Hub","fldsize":"6.3","fldtype":"fixed","id":"4083","_umap_options":{"showLabel": 0}}},
{"type": "Feature","geometry":{"coordinates": [-0.081228,51.590232],"type":"Point"},"properties":{"Address":"N176DU","name":"Marvin","hfrecnum":"4082","Event":"Lordship Hub","fldsize":"6.3","fldtype":"fixed","id":"4082","_umap_options":{"showLabel": 0}}},
{"type": "Feature","geometry":{"coordinates": [-0.097195,51.596778],"type":"Point"},"properties":{"Address":"N226QG","name":"P","hfrecnum":"4081","Event":"Lordship Hub","fldsize":"6.3","fldtype":"fixed","id":"4081","_umap_options":{"showLabel": 0}}},
{"type": "Feature","geometry":{"coordinates": [-0.07837,51.546068],"type":"Point"},"properties":{"Address":"N14BW","name":"Marcia","hfrecnum":"4080","Event":"Lordship Hub","fldsize":"6.3","fldtype":"fixed","id":"4080","_umap_options":{"showLabel": 0}}},
{"type": "Feature","geometry":{"coordinates": [-0.088178,51.574959],"type":"Point"},"properties":{"Address":"N41DN","name":"Ella","hfrecnum":"4079","Event":"Lordship Hub","fldsize":"6.3","fldtype":"Beyond Repair","id":"4079","_umap_options":{"showLabel": 0}}},
{"type": "Feature","geometry":{"coordinates": [-0.111477,51.596805],"type":"Point"},"properties":{"Address":"N226UX","name":"Healing","hfrecnum":"4078","Event":"Lordship Hub","fldsize":"6.3","fldtype":"Beyond Repair","id":"4078","_umap_options":{"showLabel": 0}}},
{"type": "Feature","geometry":{"coordinates": [-0.1213,51.608847],"type":"Point"},"properties":{"Address":"N112QQ","name":"Anna","hfrecnum":"4077","Event":"Lordship Hub","fldsize":"6.3","fldtype":"diagnosed","id":"4077","_umap_options":{"showLabel": 0}}},
{"type": "Feature","geometry":{"coordinates": [-0.056861,51.554302],"type":"Point"},"properties":{"Address":"E58NS","name":"Vasoulla","hfrecnum":"4076","Event":"Lordship Hub","fldsize":"6.3","fldtype":"partial fix","id":"4076","_umap_options":{"showLabel": 0}}},
{"type": "Feature","geometry":{"coordinates": [-0.07837,51.546068],"type":"Point"},"properties":{"Address":"N14BW","name":"Marcia","hfrecnum":"4074","Event":"Lordship Hub","fldsize":"6.3","fldtype":"diagnosed","id":"4074","_umap_options":{"showLabel": 0}}},
{"type": "Feature","geometry":{"coordinates": [-0.103318,51.597102],"type":"Point"},"properties":{"Address":"N226NG","name":"Ella","hfrecnum":"4073","Event":"Lordship Hub","fldsize":"6.3","fldtype":"fixed","id":"4073","_umap_options":{"showLabel": 0}}},
{"type": "Feature","geometry":{"coordinates": [-0.102709,51.596462],"type":"Point"},"properties":{"Address":"N226PJ","name":"Esther","hfrecnum":"4072","Event":"Lordship Hub","fldsize":"6.3","fldtype":"diagnosed","id":"4072","_umap_options":{"showLabel": 0}}},
{"type": "Feature","geometry":{"coordinates": [-0.078593,51.594589],"type":"Point"},"properties":{"Address":"N176JH","name":"Fiona","hfrecnum":"4071","Event":"Lordship Hub","fldsize":"6.3","fldtype":"fixed","id":"4071","_umap_options":{"showLabel": 0}}},
{"type": "Feature","geometry":{"coordinates": [0.018287,51.406101],"type":"Point"},"properties":{"Address":"BT15","name":"Ursula","hfrecnum":"4070","Event":"Lordship Hub","fldsize":"6.3","fldtype":"Beyond Repair","id":"4070","_umap_options":{"showLabel": 0}}},
{"type": "Feature","geometry":{"coordinates": [-0.132868,51.571201],"type":"Point"},"properties":{"Address":"N193BQ","name":"Xilonem","hfrecnum":"4069","Event":"Lordship Hub","fldsize":"6.3","fldtype":"Self-repair","id":"4069","_umap_options":{"showLabel": 0}}},
{"type": "Feature","geometry":{"coordinates": [-0.081228,51.590232],"type":"Point"},"properties":{"Address":"N176DU","name":"Lauren","hfrecnum":"4068","Event":"Lordship Hub","fldsize":"6.3","fldtype":"Beyond Repair","id":"4068","_umap_options":{"showLabel": 0}}},
{"type": "Feature","geometry":{"coordinates": [-0.081228,51.590232],"type":"Point"},"properties":{"Address":"N176DU","name":"Lauren","hfrecnum":"4067","Event":"Lordship Hub","fldsize":"6.3","fldtype":"partial fix","id":"4067","_umap_options":{"showLabel": 0}}},
{"type": "Feature","geometry":{"coordinates": [-0.081228,51.590232],"type":"Point"},"properties":{"Address":"N176DU","name":"Lauren","hfrecnum":"4066","Event":"Lordship Hub","fldsize":"6.3","fldtype":"partial fix","id":"4066","_umap_options":{"showLabel": 0}}},
{"type": "Feature","geometry":{"coordinates": [-0.093778,51.58148],"type":"Point"},"properties":{"Address":"N153TA","name":"Adrien","hfrecnum":"4065","Event":"Lordship Hub","fldsize":"6.3","fldtype":"partial fix","id":"4065","_umap_options":{"showLabel": 0}}},
{"type": "Feature","geometry":{"coordinates": [-0.111183,51.593029],"type":"Point"},"properties":{"Address":"N80JX","name":"Tak","hfrecnum":"4064","Event":"Lordship Hub","fldsize":"6.3","fldtype":"diagnosed","id":"4064","_umap_options":{"showLabel": 0}}},
{"type": "Feature","geometry":{"coordinates": [-0.271898,51.583887],"type":"Point"},"properties":{"Address":"NW99LT","name":"Bhavin","hfrecnum":"4063","Event":"Lordship Hub","fldsize":"6.3","fldtype":"fixed","id":"4063","_umap_options":{"showLabel": 0}}},
{"type": "Feature","geometry":{"coordinates": [-0.073347,51.594709],"type":"Point"},"properties":{"Address":"N176UN","name":"Lukasz","hfrecnum":"4062","Event":"Lordship Hub","fldsize":"6.3","fldtype":"Beyond Repair","id":"4062","_umap_options":{"showLabel": 0}}},
{"type": "Feature","geometry":{"coordinates": [-0.084505,51.595717],"type":"Point"},"properties":{"Address":"N176HG","name":"Nicolette","hfrecnum":"4059","Event":"Broadwater Farm","fldsize":"6.3","fldtype":"fixed","id":"4059","_umap_options":{"showLabel": 0}}},
{"type": "Feature","geometry":{"coordinates": [-0.058338,51.597535],"type":"Point"},"properties":{"Address":"N179XR","name":"cemile","hfrecnum":"4057","Event":"Broadwater Farm","fldsize":"6.3","fldtype":"diagnosed","id":"4057","_umap_options":{"showLabel": 0}}},
{"type": "Feature","geometry":{"coordinates": [-0.084505,51.595717],"type":"Point"},"properties":{"Address":"N176HG","name":"Mary Anne","hfrecnum":"4056","Event":"Broadwater Farm","fldsize":"6.3","fldtype":"fixed later","id":"4056","_umap_options":{"showLabel": 0}}},
{"type": "Feature","geometry":{"coordinates": [-0.084505,51.595717],"type":"Point"},"properties":{"Address":"N176HG","name":"Mary Anne","hfrecnum":"4055","Event":"Broadwater Farm","fldsize":"6.3","fldtype":"fixed later","id":"4055","_umap_options":{"showLabel": 0}}},
{"type": "Feature","geometry":{"coordinates": [-0.081822,51.588452],"type":"Point"},"properties":{"Address":"N154HQ","name":"Sarah","hfrecnum":"4054","Event":"Broadwater Farm","fldsize":"6.3","fldtype":"Self-repair","id":"4054","_umap_options":{"showLabel": 0}}},
{"type": "Feature","geometry":{"coordinates": [-0.086643,51.58881],"type":"Point"},"properties":{"Address":"N176PN","name":"Kate","hfrecnum":"4053","Event":"Broadwater Farm","fldsize":"6.3","fldtype":"fixed","id":"4053","_umap_options":{"showLabel": 0}}},
{"type": "Feature","geometry":{"coordinates": [-0.086643,51.58881],"type":"Point"},"properties":{"Address":"N176PN","name":"Kate","hfrecnum":"4052","Event":"Broadwater Farm","fldsize":"6.3","fldtype":"diagnosed","id":"4052","_umap_options":{"showLabel": 0}}},
{"type": "Feature","geometry":{"coordinates": [-0.115938,51.580696],"type":"Point"},"properties":{"Address":"N89PP","name":"Huren","hfrecnum":"4051","Event":"Broadwater Farm","fldsize":"6.3","fldtype":"fixed","id":"4051","_umap_options":{"showLabel": 0}}},
{"type": "Feature","geometry":{"coordinates": [-0.078529,51.5968],"type":"Point"},"properties":{"Address":"N176HD","name":"Tina","hfrecnum":"4050","Event":"Broadwater Farm","fldsize":"6.3","fldtype":"fixed","id":"4050","_umap_options":{"showLabel": 0}}},
{"type": "Feature","geometry":{"coordinates": [-0.073906,51.586866],"type":"Point"},"properties":{"Address":"N154FN","name":"Julian","hfrecnum":"4049","Event":"Broadwater Farm","fldsize":"6.3","fldtype":"fixed","id":"4049","_umap_options":{"showLabel": 0}}},
{"type": "Feature","geometry":{"coordinates": [-0.094711,51.583689],"type":"Point"},"properties":{"Address":"N153RX","name":"Ilaria","hfrecnum":"4048","Event":"Broadwater Farm","fldsize":"6.3","fldtype":"fixed","id":"4048","_umap_options":{"showLabel": 0}}},
{"type": "Feature","geometry":{"coordinates": [-0.083697,51.586525],"type":"Point"},"properties":{"Address":"N155AJ","name":"Kirsty","hfrecnum":"4047","Event":"Broadwater Farm","fldsize":"6.3","fldtype":"fixed","id":"4047","_umap_options":{"showLabel": 0}}},
{"type": "Feature","geometry":{"coordinates": [-0.083697,51.586525],"type":"Point"},"properties":{"Address":"N155AJ","name":"Kirsty","hfrecnum":"4046","Event":"Broadwater Farm","fldsize":"6.3","fldtype":"fixed","id":"4046","_umap_options":{"showLabel": 0}}},
{"type": "Feature","geometry":{"coordinates": [-0.142415,51.58726],"type":"Point"},"properties":{"Address":"N103DD","name":"Richard","hfrecnum":"4044","Event":"Broadwater Farm","fldsize":"6.3","fldtype":"fixed","id":"4044","_umap_options":{"showLabel": 0}}},
{"type": "Feature","geometry":{"coordinates": [-0.087436,51.577926],"type":"Point"},"properties":{"Address":"N41NR","name":"Chroswell","hfrecnum":"4043","Event":"Broadwater Farm","fldsize":"6.3","fldtype":"fixed","id":"4043","_umap_options":{"showLabel": 0}}},
{"type": "Feature","geometry":{"coordinates": [-0.084505,51.595717],"type":"Point"},"properties":{"Address":"N176HG","name":"Georgina","hfrecnum":"4042","Event":"Broadwater Farm","fldsize":"6.3","fldtype":"Self-repair","id":"4042","_umap_options":{"showLabel": 0}}},
{"type": "Feature","geometry":{"coordinates": [-0.084505,51.595717],"type":"Point"},"properties":{"Address":"N176HG","name":"Georgina","hfrecnum":"4041","Event":"Broadwater Farm","fldsize":"6.3","fldtype":"Self-repair","id":"4041","_umap_options":{"showLabel": 0}}},
{"type": "Feature","geometry":{"coordinates": [-0.084505,51.595717],"type":"Point"},"properties":{"Address":"N176HG","name":"Georgina","hfrecnum":"4040","Event":"Broadwater Farm","fldsize":"6.3","fldtype":"Self-repair","id":"4040","_umap_options":{"showLabel": 0}}},
{"type": "Feature","geometry":{"coordinates": [-0.084505,51.595717],"type":"Point"},"properties":{"Address":"N176HG","name":"Georgina","hfrecnum":"4039","Event":"Broadwater Farm","fldsize":"6.3","fldtype":"fixed","id":"4039","_umap_options":{"showLabel": 0}}},
{"type": "Feature","geometry":{"coordinates": [-0.084505,51.595717],"type":"Point"},"properties":{"Address":"N176HG","name":"Georgina","hfrecnum":"4038","Event":"Broadwater Farm","fldsize":"6.3","fldtype":"fixed","id":"4038","_umap_options":{"showLabel": 0}}},
{"type": "Feature","geometry":{"coordinates": [-0.084505,51.595717],"type":"Point"},"properties":{"Address":"N176HG","name":"Georgina","hfrecnum":"4037","Event":"Broadwater Farm","fldsize":"6.3","fldtype":"fixed","id":"4037","_umap_options":{"showLabel": 0}}},
{"type": "Feature","geometry":{"coordinates": [-0.084505,51.595717],"type":"Point"},"properties":{"Address":"N176HG","name":"Georgina","hfrecnum":"4036","Event":"Broadwater Farm","fldsize":"6.3","fldtype":"fixed","id":"4036","_umap_options":{"showLabel": 0}}},
{"type": "Feature","geometry":{"coordinates": [-0.057486,51.599212],"type":"Point"},"properties":{"Address":"N179XZ","name":"Joy","hfrecnum":"4035","Event":"Broadwater Farm","fldsize":"6.3","fldtype":"Beyond Repair","id":"4035","_umap_options":{"showLabel": 0}}},
{"type": "Feature","geometry":{"coordinates": [-0.074623,51.584935],"type":"Point"},"properties":{"Address":"N154RW","name":"Daniel","hfrecnum":"4034","Event":"Broadwater Farm","fldsize":"6.3","fldtype":"fixed","id":"4034","_umap_options":{"showLabel": 0}}},
{"type": "Feature","geometry":{"coordinates": [-0.072995,51.603631],"type":"Point"},"properties":{"Address":"N178BE","name":"Harold","hfrecnum":"4033","Event":"Broadwater Farm","fldsize":"6.3","fldtype":"fixed","id":"4033","_umap_options":{"showLabel": 0}}},
{"type": "Feature","geometry":{"coordinates": [-0.080813,51.590237],"type":"Point"},"properties":{"Address":"N176DX","name":"Joanna","hfrecnum":"4032","Event":"Broadwater Farm","fldsize":"6.3","fldtype":"fixed","id":"4032","_umap_options":{"showLabel": 0}}},
{"type": "Feature","geometry":{"coordinates": [-0.11411,51.571512],"type":"Point"},"properties":{"Address":"N43QE","name":"Dan","hfrecnum":"4031","Event":"Broadwater Farm","fldsize":"6.3","fldtype":"fixed","id":"4031","_umap_options":{"showLabel": 0}}},
{"type": "Feature","geometry":{"coordinates": [-0.083697,51.586525],"type":"Point"},"properties":{"Address":"N155AJ","name":"Kirsty","hfrecnum":"4030","Event":"Broadwater Farm","fldsize":"6.3","fldtype":"Beyond Repair","id":"4030","_umap_options":{"showLabel": 0}}},
{"type": "Feature","geometry":{"coordinates": [-0.083697,51.586525],"type":"Point"},"properties":{"Address":"N155AJ","name":"Kirsty","hfrecnum":"4029","Event":"Broadwater Farm","fldsize":"6.3","fldtype":"Beyond Repair","id":"4029","_umap_options":{"showLabel": 0}}},
{"type": "Feature","geometry":{"coordinates": [-0.055845,51.514538],"type":"Point"},"properties":{"Address":"E12HU","name":"Catherine","hfrecnum":"4028","Event":"Broadwater Farm","fldsize":"6.3","fldtype":"diagnosed","id":"4028","_umap_options":{"showLabel": 0}}},
{"type": "Feature","geometry":{"coordinates": [-0.074547,51.596633],"type":"Point"},"properties":{"Address":"N176RL","name":"Aurélie","hfrecnum":"4027","Event":"Broadwater Farm","fldsize":"6.3","fldtype":"Beyond Repair","id":"4027","_umap_options":{"showLabel": 0}}},
{"type": "Feature","geometry":{"coordinates": [-0.074547,51.596633],"type":"Point"},"properties":{"Address":"N176RL","name":"Aurélie","hfrecnum":"4026","Event":"Broadwater Farm","fldsize":"6.3","fldtype":"fixed","id":"4026","_umap_options":{"showLabel": 0}}},
{"type": "Feature","geometry":{"coordinates": [-0.074547,51.596633],"type":"Point"},"properties":{"Address":"N176RL","name":"Aurélie","hfrecnum":"4025","Event":"Broadwater Farm","fldsize":"6.3","fldtype":"diagnosed","id":"4025","_umap_options":{"showLabel": 0}}},
{"type": "Feature","geometry":{"coordinates": [-0.084505,51.595717],"type":"Point"},"properties":{"Address":"N176HG","name":"Chris","hfrecnum":"4024","Event":"Broadwater Farm","fldsize":"6.3","fldtype":"fixed","id":"4024","_umap_options":{"showLabel": 0}}},
{"type": "Feature","geometry":{"coordinates": [-0.084505,51.595717],"type":"Point"},"properties":{"Address":"N176HG","name":"Georgina","hfrecnum":"4023","Event":"Broadwater Farm","fldsize":"6.3","fldtype":"fixed","id":"4023","_umap_options":{"showLabel": 0}}},
{"type": "Feature","geometry":{"coordinates": [-0.084505,51.595717],"type":"Point"},"properties":{"Address":"N176HG","name":"Georgina","hfrecnum":"4022","Event":"Broadwater Farm","fldsize":"6.3","fldtype":"fixed","id":"4022","_umap_options":{"showLabel": 0}}},
{"type": "Feature","geometry":{"coordinates": [-0.084505,51.595717],"type":"Point"},"properties":{"Address":"N176HG","name":"Georgina","hfrecnum":"4021","Event":"Broadwater Farm","fldsize":"6.3","fldtype":"fixed","id":"4021","_umap_options":{"showLabel": 0}}},
{"type": "Feature","geometry":{"coordinates": [-0.084505,51.595717],"type":"Point"},"properties":{"Address":"N176HG","name":"Rajan","hfrecnum":"4020","Event":"Broadwater Farm","fldsize":"6.3","fldtype":"fixed","id":"4020","_umap_options":{"showLabel": 0}}},
{"type": "Feature","geometry":{"coordinates": [-0.084505,51.595717],"type":"Point"},"properties":{"Address":"N176HG","name":"","hfrecnum":"4019","Event":"Broadwater Farm","fldsize":"6.3","fldtype":"","id":"4019","_umap_options":{"showLabel": 0}}},
{"type": "Feature","geometry":{"coordinates": [-0.089249,51.599994],"type":"Point"},"properties":{"Address":"N177HJ","name":"Iain","hfrecnum":"4016","Event":"Lordship Hub","fldsize":"6.3","fldtype":"fixed","id":"4016","_umap_options":{"showLabel": 0}}},
{"type": "Feature","geometry":{"coordinates": [-0.131745,51.607018],"type":"Point"},"properties":{"Address":"N112AG","name":"Tim","hfrecnum":"4015","Event":"Lordship Hub","fldsize":"6.3","fldtype":"Beyond Repair","id":"4015","_umap_options":{"showLabel": 0}}},
{"type": "Feature","geometry":{"coordinates": [-0.09641,51.588009],"type":"Point"},"properties":{"Address":"N153PS","name":"Stephanie","hfrecnum":"4014","Event":"Lordship Hub","fldsize":"6.3","fldtype":"diagnosed","id":"4014","_umap_options":{"showLabel": 0}}},
{"type": "Feature","geometry":{"coordinates": [-0.086015,51.60066],"type":"Point"},"properties":{"Address":"N177DR","name":"Stewart","hfrecnum":"4013","Event":"Lordship Hub","fldsize":"6.3","fldtype":"diagnosed","id":"4013","_umap_options":{"showLabel": 0}}},
{"type": "Feature","geometry":{"coordinates": [-0.086916,51.58825],"type":"Point"},"properties":{"Address":"N176PJ","name":"Alison","hfrecnum":"4012","Event":"Lordship Hub","fldsize":"6.3","fldtype":"fixed","id":"4012","_umap_options":{"showLabel": 0}}},
{"type": "Feature","geometry":{"coordinates": [-0.094453,51.640553],"type":"Point"},"properties":{"Address":"N212EX","name":"Paul","hfrecnum":"4011","Event":"Lordship Hub","fldsize":"6.3","fldtype":"Beyond Repair","id":"4011","_umap_options":{"showLabel": 0}}},
{"type": "Feature","geometry":{"coordinates": [-0.098568,51.583266],"type":"Point"},"properties":{"Address":"N153JD","name":"Louise","hfrecnum":"4009","Event":"Lordship Hub","fldsize":"6.3","fldtype":"Beyond Repair","id":"4009","_umap_options":{"showLabel": 0}}},
{"type": "Feature","geometry":{"coordinates": [-0.067116,51.64445],"type":"Point"},"properties":{"Address":"EN11BG","name":"alec","hfrecnum":"4008","Event":"Lordship Hub","fldsize":"6.3","fldtype":"diagnosed","id":"4008","_umap_options":{"showLabel": 0}}},
{"type": "Feature","geometry":{"coordinates": [-0.080813,51.590237],"type":"Point"},"properties":{"Address":"N176DX","name":"Joanna","hfrecnum":"4006","Event":"Lordship Hub","fldsize":"6.3","fldtype":"fixed","id":"4006","_umap_options":{"showLabel": 0}}},
{"type": "Feature","geometry":{"coordinates": [-0.080813,51.590237],"type":"Point"},"properties":{"Address":"N176DX","name":"Joanna","hfrecnum":"4005","Event":"Lordship Hub","fldsize":"6.3","fldtype":"fixed","id":"4005","_umap_options":{"showLabel": 0}}},
{"type": "Feature","geometry":{"coordinates": [-0.123636,51.611402],"type":"Point"},"properties":{"Address":"N112HU","name":"Jane","hfrecnum":"4004","Event":"Lordship Hub","fldsize":"6.3","fldtype":"fixed","id":"4004","_umap_options":{"showLabel": 0}}},
{"type": "Feature","geometry":{"coordinates": [-0.123636,51.611402],"type":"Point"},"properties":{"Address":"N112HU","name":"Jane","hfrecnum":"4003","Event":"Lordship Hub","fldsize":"6.3","fldtype":"fixed","id":"4003","_umap_options":{"showLabel": 0}}},
{"type": "Feature","geometry":{"coordinates": [-0.11815,51.583753],"type":"Point"},"properties":{"Address":"N87DG","name":"Yuet","hfrecnum":"4002","Event":"Lordship Hub","fldsize":"6.3","fldtype":"Beyond Repair","id":"4002","_umap_options":{"showLabel": 0}}},
{"type": "Feature","geometry":{"coordinates": [-0.103727,51.532129],"type":"Point"},"properties":{"Address":"N18DD","name":"Katie","hfrecnum":"4001","Event":"Lordship Hub","fldsize":"6.3","fldtype":"fixed","id":"4001","_umap_options":{"showLabel": 0}}},
{"type": "Feature","geometry":{"coordinates": [-0.084505,51.595717],"type":"Point"},"properties":{"Address":"N176HG","name":"Tony","hfrecnum":"4000","Event":"Lordship Hub","fldsize":"6.3","fldtype":"fixed","id":"4000","_umap_options":{"showLabel": 0}}}]}
