{"type": "FeatureCollection", "features":[
{"type": "Feature","geometry":{"coordinates": [-0.084505,51.595717],"type":"Point"},"properties":{"Address":"N176HG","name":"Noel","hfrecnum":"4791","Event":"All Good Bookshop","fldsize":"6.3","fldtype":"Unable to fix","id":"4791","_umap_options":{"showLabel": 0}}},
{"type": "Feature","geometry":{"coordinates": [-0.084505,51.595717],"type":"Point"},"properties":{"Address":"N176HG","name":"Moselle Community","hfrecnum":"4790","Event":"All Good Bookshop","fldsize":"6.3","fldtype":"Beyond Repair","id":"4790","_umap_options":{"showLabel": 0}}},
{"type": "Feature","geometry":{"coordinates": [-0.084505,51.595717],"type":"Point"},"properties":{"Address":"N176HG","name":"Moselle Community","hfrecnum":"4789","Event":"All Good Bookshop","fldsize":"6.3","fldtype":"fixed","id":"4789","_umap_options":{"showLabel": 0}}},
{"type": "Feature","geometry":{"coordinates": [-0.084505,51.595717],"type":"Point"},"properties":{"Address":"N176HG","name":"Moselle Community","hfrecnum":"4788","Event":"All Good Bookshop","fldsize":"6.3","fldtype":"Beyond Repair","id":"4788","_umap_options":{"showLabel": 0}}},
{"type": "Feature","geometry":{"coordinates": [-0.122618,51.580833],"type":"Point"},"properties":{"Address":"N88PT","name":"Ashley","hfrecnum":"4787","Event":"All Good Bookshop","fldsize":"6.3","fldtype":"fixed","id":"4787","_umap_options":{"showLabel": 0}}},
{"type": "Feature","geometry":{"coordinates": [-0.109846,51.567487],"type":"Point"},"properties":{"Address":"N43AB","name":"Helena","hfrecnum":"4786","Event":"All Good Bookshop","fldsize":"6.3","fldtype":"diagnosed","id":"4786","_umap_options":{"showLabel": 0}}},
{"type": "Feature","geometry":{"coordinates": [-0.151496,51.594705],"type":"Point"},"properties":{"Address":"N101NL","name":"richard","hfrecnum":"4785","Event":"All Good Bookshop","fldsize":"6.3","fldtype":"Unable to fix","id":"4785","_umap_options":{"showLabel": 0}}},
{"type": "Feature","geometry":{"coordinates": [-0.075547,51.567856],"type":"Point"},"properties":{"Address":"N165XE","name":"Denise","hfrecnum":"4784","Event":"All Good Bookshop","fldsize":"6.3","fldtype":"Unable to fix","id":"4784","_umap_options":{"showLabel": 0}}},
{"type": "Feature","geometry":{"coordinates": [-0.130192,51.600518],"type":"Point"},"properties":{"Address":"N227XW","name":"John","hfrecnum":"4783","Event":"All Good Bookshop","fldsize":"6.3","fldtype":"fixed","id":"4783","_umap_options":{"showLabel": 0}}},
{"type": "Feature","geometry":{"coordinates": [-0.09437,51.594601],"type":"Point"},"properties":{"Address":"N226QX","name":"Nik","hfrecnum":"4782","Event":"All Good Bookshop","fldsize":"6.3","fldtype":"Unable to fix","id":"4782","_umap_options":{"showLabel": 0}}},
{"type": "Feature","geometry":{"coordinates": [-0.084505,51.595717],"type":"Point"},"properties":{"Address":"N176HG","name":"Noel","hfrecnum":"4774","Event":"All Good Bookshop","fldsize":"6.3","fldtype":"","id":"4774","_umap_options":{"showLabel": 0}}},
{"type": "Feature","geometry":{"coordinates": [-0.118635,51.600657],"type":"Point"},"properties":{"Address":"N227DA","name":"Lou","hfrecnum":"4772","Event":"All Good Bookshop","fldsize":"6.3","fldtype":"diagnosed","id":"4772","_umap_options":{"showLabel": 0}}},
{"type": "Feature","geometry":{"coordinates": [-0.133088,51.554892],"type":"Point"},"properties":{"Address":"N70RB","name":"Assia","hfrecnum":"4771","Event":"All Good Bookshop","fldsize":"6.3","fldtype":"fixed","id":"4771","_umap_options":{"showLabel": 0}}},
{"type": "Feature","geometry":{"coordinates": [-0.118509,51.589463],"type":"Point"},"properties":{"Address":"N87FP","name":"Campsbourne community collective","hfrecnum":"4770","Event":"All Good Bookshop","fldsize":"6.3","fldtype":"interim retry","id":"4770","_umap_options":{"showLabel": 0}}},
{"type": "Feature","geometry":{"coordinates": [-0.12296,51.589621],"type":"Point"},"properties":{"Address":"N87QY","name":"Helena","hfrecnum":"4769","Event":"All Good Bookshop","fldsize":"6.3","fldtype":"fixed","id":"4769","_umap_options":{"showLabel": 0}}},
{"type": "Feature","geometry":{"coordinates": [-0.12296,51.589621],"type":"Point"},"properties":{"Address":"N87QY","name":"Helena","hfrecnum":"4768","Event":"All Good Bookshop","fldsize":"6.3","fldtype":"partial fix","id":"4768","_umap_options":{"showLabel": 0}}},
{"type": "Feature","geometry":{"coordinates": [-0.102161,51.577749],"type":"Point"},"properties":{"Address":"N41AA","name":"Anuj","hfrecnum":"4767","Event":"All Good Bookshop","fldsize":"6.3","fldtype":"fixed","id":"4767","_umap_options":{"showLabel": 0}}},
{"type": "Feature","geometry":{"coordinates": [-0.121616,51.589728],"type":"Point"},"properties":{"Address":"N87AD","name":"Morten","hfrecnum":"4766","Event":"All Good Bookshop","fldsize":"6.3","fldtype":"interim retry","id":"4766","_umap_options":{"showLabel": 0}}},
{"type": "Feature","geometry":{"coordinates": [-0.140385,51.597815],"type":"Point"},"properties":{"Address":"N102AD","name":"Alex","hfrecnum":"4765","Event":"All Good Bookshop","fldsize":"6.3","fldtype":"","id":"4765","_umap_options":{"showLabel": 0}}},
{"type": "Feature","geometry":{"coordinates": [-0.128129,51.588184],"type":"Point"},"properties":{"Address":"N87RT","name":"Richard","hfrecnum":"4764","Event":"All Good Bookshop","fldsize":"6.3","fldtype":"diagnosed","id":"4764","_umap_options":{"showLabel": 0}}},
{"type": "Feature","geometry":{"coordinates": [-0.09437,51.594601],"type":"Point"},"properties":{"Address":"N226QX","name":"Ade","hfrecnum":"4763","Event":"All Good Bookshop","fldsize":"6.3","fldtype":"diagnosed","id":"4763","_umap_options":{"showLabel": 0}}},
{"type": "Feature","geometry":{"coordinates": [-0.09437,51.594601],"type":"Point"},"properties":{"Address":"N226QX","name":"Nik","hfrecnum":"4762","Event":"All Good Bookshop","fldsize":"6.3","fldtype":"diagnosed","id":"4762","_umap_options":{"showLabel": 0}}},
{"type": "Feature","geometry":{"coordinates": [-0.116909,51.597006],"type":"Point"},"properties":{"Address":"N227SX","name":"Natalie","hfrecnum":"4761","Event":"All Good Bookshop","fldsize":"6.3","fldtype":"Beyond Repair","id":"4761","_umap_options":{"showLabel": 0}}},
{"type": "Feature","geometry":{"coordinates": [-0.121616,51.589728],"type":"Point"},"properties":{"Address":"N87AD","name":"Anna","hfrecnum":"4760","Event":"All Good Bookshop","fldsize":"6.3","fldtype":"donation","id":"4760","_umap_options":{"showLabel": 0}}},
{"type": "Feature","geometry":{"coordinates": [-0.287306,51.602898],"type":"Point"},"properties":{"Address":"HA86BS","name":"Gopal","hfrecnum":"4755","Event":"All Good Bookshop","fldsize":"6.3","fldtype":"volunteer1","id":"4755","_umap_options":{"showLabel": 0}}},
{"type": "Feature","geometry":{"coordinates": [-0.109708,51.541955],"type":"Point"},"properties":{"Address":"N11JU","name":"Alexander","hfrecnum":"4754","Event":"All Good Bookshop","fldsize":"6.3","fldtype":"fixed","id":"4754","_umap_options":{"showLabel": 0}}},
{"type": "Feature","geometry":{"coordinates": [-0.1229,51.588706],"type":"Point"},"properties":{"Address":"N87QU","name":"Hana","hfrecnum":"4753","Event":"All Good Bookshop","fldsize":"6.3","fldtype":"fixed","id":"4753","_umap_options":{"showLabel": 0}}},
{"type": "Feature","geometry":{"coordinates": [-0.142036,51.573918],"type":"Point"},"properties":{"Address":"N65BN","name":"Holly","hfrecnum":"4752","Event":"All Good Bookshop","fldsize":"6.3","fldtype":"fixed","id":"4752","_umap_options":{"showLabel": 0}}},
{"type": "Feature","geometry":{"coordinates": [-0.124283,51.591237],"type":"Point"},"properties":{"Address":"N87LN","name":"Cathy","hfrecnum":"4751","Event":"All Good Bookshop","fldsize":"6.3","fldtype":"Unable to fix","id":"4751","_umap_options":{"showLabel": 0}}},
{"type": "Feature","geometry":{"coordinates": [-0.103837,51.582569],"type":"Point"},"properties":{"Address":"N80BS","name":"Caroline","hfrecnum":"4750","Event":"All Good Bookshop","fldsize":"6.3","fldtype":"Unable to fix","id":"4750","_umap_options":{"showLabel": 0}}},
{"type": "Feature","geometry":{"coordinates": [-0.111587,51.625408],"type":"Point"},"properties":{"Address":"N134BN","name":"Suresh","hfrecnum":"4749","Event":"All Good Bookshop","fldsize":"6.3","fldtype":"partial fix","id":"4749","_umap_options":{"showLabel": 0}}},
{"type": "Feature","geometry":{"coordinates": [-0.111587,51.625408],"type":"Point"},"properties":{"Address":"N134BN","name":"Suresh","hfrecnum":"4748","Event":"All Good Bookshop","fldsize":"6.3","fldtype":"Unable to fix","id":"4748","_umap_options":{"showLabel": 0}}},
{"type": "Feature","geometry":{"coordinates": [-0.098303,51.591337],"type":"Point"},"properties":{"Address":"N226AA","name":"Kerry-Ann","hfrecnum":"4747","Event":"All Good Bookshop","fldsize":"6.3","fldtype":"Unable to fix","id":"4747","_umap_options":{"showLabel": 0}}},
{"type": "Feature","geometry":{"coordinates": [-0.094661,51.590748],"type":"Point"},"properties":{"Address":"N176AP","name":"Kumari","hfrecnum":"4746","Event":"All Good Bookshop","fldsize":"6.3","fldtype":"Self-repair","id":"4746","_umap_options":{"showLabel": 0}}},
{"type": "Feature","geometry":{"coordinates": [-0.105364,51.589665],"type":"Point"},"properties":{"Address":"N80EP","name":"Donna","hfrecnum":"4745","Event":"All Good Bookshop","fldsize":"6.3","fldtype":"Unable to fix","id":"4745","_umap_options":{"showLabel": 0}}},
{"type": "Feature","geometry":{"coordinates": [-0.105364,51.589665],"type":"Point"},"properties":{"Address":"N80EP","name":"internal","hfrecnum":"4744","Event":"All Good Bookshop","fldsize":"6.3","fldtype":"Beyond Repair","id":"4744","_umap_options":{"showLabel": 0}}},
{"type": "Feature","geometry":{"coordinates": [-0.105364,51.589665],"type":"Point"},"properties":{"Address":"N80EP","name":"","hfrecnum":"4743","Event":"All Good Bookshop","fldsize":"6.3","fldtype":"diagnosed","id":"4743","_umap_options":{"showLabel": 0}}},
{"type": "Feature","geometry":{"coordinates": [-0.087004,51.592251],"type":"Point"},"properties":{"Address":"N176NU","name":"Doris","hfrecnum":"4733","Event":"Lordship Hub","fldsize":"6.3","fldtype":"fixed","id":"4733","_umap_options":{"showLabel": 0}}},
{"type": "Feature","geometry":{"coordinates": [-0.103554,51.581036],"type":"Point"},"properties":{"Address":"N41AT","name":"Henry","hfrecnum":"4732","Event":"Lordship Hub","fldsize":"6.3","fldtype":"fixed","id":"4732","_umap_options":{"showLabel": 0}}},
{"type": "Feature","geometry":{"coordinates": [-0.059593,51.59993],"type":"Point"},"properties":{"Address":"N170NL","name":"Lucinda","hfrecnum":"4731","Event":"Lordship Hub","fldsize":"6.3","fldtype":"diagnosed","id":"4731","_umap_options":{"showLabel": 0}}},
{"type": "Feature","geometry":{"coordinates": [-0.079638,51.581117],"type":"Point"},"properties":{"Address":"N155HP","name":"Mayur","hfrecnum":"4730","Event":"Lordship Hub","fldsize":"6.3","fldtype":"fixed","id":"4730","_umap_options":{"showLabel": 0}}},
{"type": "Feature","geometry":{"coordinates": [-0.093702,51.584764],"type":"Point"},"properties":{"Address":"N153RT","name":"Christine","hfrecnum":"4729","Event":"Lordship Hub","fldsize":"6.3","fldtype":"Unable to fix","id":"4729","_umap_options":{"showLabel": 0}}},
{"type": "Feature","geometry":{"coordinates": [-0.105082,51.5849],"type":"Point"},"properties":{"Address":"N80NG","name":"Macu","hfrecnum":"4728","Event":"Lordship Hub","fldsize":"6.3","fldtype":"Unable to fix","id":"4728","_umap_options":{"showLabel": 0}}},
{"type": "Feature","geometry":{"coordinates": [-0.101648,51.584245],"type":"Point"},"properties":{"Address":"N80AG","name":"heather","hfrecnum":"4727","Event":"Lordship Hub","fldsize":"6.3","fldtype":"Unable to fix","id":"4727","_umap_options":{"showLabel": 0}}},
{"type": "Feature","geometry":{"coordinates": [-0.111183,51.593029],"type":"Point"},"properties":{"Address":"N80JX","name":"takatomo","hfrecnum":"4726","Event":"Lordship Hub","fldsize":"6.3","fldtype":"Beyond Repair","id":"4726","_umap_options":{"showLabel": 0}}},
{"type": "Feature","geometry":{"coordinates": [-0.111183,51.593029],"type":"Point"},"properties":{"Address":"N80JX","name":"takatomo","hfrecnum":"4725","Event":"Lordship Hub","fldsize":"6.3","fldtype":"fixed","id":"4725","_umap_options":{"showLabel": 0}}},
{"type": "Feature","geometry":{"coordinates": [-0.111183,51.593029],"type":"Point"},"properties":{"Address":"N80JX","name":"takatomo","hfrecnum":"4724","Event":"Lordship Hub","fldsize":"6.3","fldtype":"fixed","id":"4724","_umap_options":{"showLabel": 0}}},
{"type": "Feature","geometry":{"coordinates": [-0.121483,51.588395],"type":"Point"},"properties":{"Address":"N87PJ","name":"Andrew","hfrecnum":"4723","Event":"Lordship Hub","fldsize":"6.3","fldtype":"diagnosed","id":"4723","_umap_options":{"showLabel": 0}}},
{"type": "Feature","geometry":{"coordinates": [-0.097823,51.600412],"type":"Point"},"properties":{"Address":"N225EA","name":"Cristina","hfrecnum":"4722","Event":"Lordship Hub","fldsize":"6.3","fldtype":"diagnosed","id":"4722","_umap_options":{"showLabel": 0}}},
{"type": "Feature","geometry":{"coordinates": [-0.087004,51.592251],"type":"Point"},"properties":{"Address":"N176NU","name":"Christine","hfrecnum":"4721","Event":"Lordship Hub","fldsize":"6.3","fldtype":"partial fix","id":"4721","_umap_options":{"showLabel": 0}}},
{"type": "Feature","geometry":{"coordinates": [-0.087004,51.592251],"type":"Point"},"properties":{"Address":"N176NU","name":"Aurea","hfrecnum":"4720","Event":"Lordship Hub","fldsize":"6.3","fldtype":"fixed","id":"4720","_umap_options":{"showLabel": 0}}},
{"type": "Feature","geometry":{"coordinates": [-0.124846,51.590101],"type":"Point"},"properties":{"Address":"N87LY","name":"internal","hfrecnum":"4710","Event":"Broadwater Farm","fldsize":"6.3","fldtype":"diagnosed","id":"4710","_umap_options":{"showLabel": 0}}},
{"type": "Feature","geometry":{"coordinates": [-0.103214,51.594051],"type":"Point"},"properties":{"Address":"N226PP","name":"Fatna","hfrecnum":"4709","Event":"Broadwater Farm","fldsize":"6.3","fldtype":"fixed","id":"4709","_umap_options":{"showLabel": 0}}},
{"type": "Feature","geometry":{"coordinates": [-0.079197,51.563419],"type":"Point"},"properties":{"Address":"N160AJ","name":"Lorna","hfrecnum":"4708","Event":"Broadwater Farm","fldsize":"6.3","fldtype":"fixed","id":"4708","_umap_options":{"showLabel": 0}}},
{"type": "Feature","geometry":{"coordinates": [-0.077791,51.589989],"type":"Point"},"properties":{"Address":"N176TT","name":"Lisa","hfrecnum":"4707","Event":"Broadwater Farm","fldsize":"6.3","fldtype":"Unable to fix","id":"4707","_umap_options":{"showLabel": 0}}},
{"type": "Feature","geometry":{"coordinates": [-0.074142,51.592553],"type":"Point"},"properties":{"Address":"N176YJ","name":"Coral","hfrecnum":"4706","Event":"Broadwater Farm","fldsize":"6.3","fldtype":"fixed","id":"4706","_umap_options":{"showLabel": 0}}},
{"type": "Feature","geometry":{"coordinates": [-0.074142,51.592553],"type":"Point"},"properties":{"Address":"N176YJ","name":"Coral","hfrecnum":"4705","Event":"Broadwater Farm","fldsize":"6.3","fldtype":"fixed","id":"4705","_umap_options":{"showLabel": 0}}},
{"type": "Feature","geometry":{"coordinates": [-0.0776,51.591018],"type":"Point"},"properties":{"Address":"N176TU","name":"Finlay","hfrecnum":"4704","Event":"Broadwater Farm","fldsize":"6.3","fldtype":"fixed","id":"4704","_umap_options":{"showLabel": 0}}},
{"type": "Feature","geometry":{"coordinates": [-0.100401,51.601365],"type":"Point"},"properties":{"Address":"N225QB","name":"Katherine","hfrecnum":"4703","Event":"Broadwater Farm","fldsize":"6.3","fldtype":"Unable to fix","id":"4703","_umap_options":{"showLabel": 0}}},
{"type": "Feature","geometry":{"coordinates": [-0.100401,51.601365],"type":"Point"},"properties":{"Address":"N225QB","name":"Katherine","hfrecnum":"4702","Event":"Broadwater Farm","fldsize":"6.3","fldtype":"diagnosed","id":"4702","_umap_options":{"showLabel": 0}}},
{"type": "Feature","geometry":{"coordinates": [-0.09218,51.60068],"type":"Point"},"properties":{"Address":"N177HB","name":"mariam","hfrecnum":"4701","Event":"Broadwater Farm","fldsize":"6.3","fldtype":"diagnosed","id":"4701","_umap_options":{"showLabel": 0}}},
{"type": "Feature","geometry":{"coordinates": [-0.115561,51.58979],"type":"Point"},"properties":{"Address":"N87RF","name":"Queenie","hfrecnum":"4694","Event":"Broadwater Farm","fldsize":"6.3","fldtype":"observer1","id":"4694","_umap_options":{"showLabel": 0}}},
{"type": "Feature","geometry":{"coordinates": [-0.126668,51.580886],"type":"Point"},"properties":{"Address":"N88TJ","name":"Sharon","hfrecnum":"4691","Event":"All Good Bookshop","fldsize":"6.3","fldtype":"fixed","id":"4691","_umap_options":{"showLabel": 0}}},
{"type": "Feature","geometry":{"coordinates": [-0.098055,51.581046],"type":"Point"},"properties":{"Address":"N41LB","name":"Alexandra","hfrecnum":"4690","Event":"All Good Bookshop","fldsize":"6.3","fldtype":"Self-repair","id":"4690","_umap_options":{"showLabel": 0}}},
{"type": "Feature","geometry":{"coordinates": [-0.107075,51.587316],"type":"Point"},"properties":{"Address":"N80HT","name":"Elaine","hfrecnum":"4689","Event":"All Good Bookshop","fldsize":"6.3","fldtype":"fixed","id":"4689","_umap_options":{"showLabel": 0}}},
{"type": "Feature","geometry":{"coordinates": [-0.099965,51.587488],"type":"Point"},"properties":{"Address":"N153DD","name":"Adham","hfrecnum":"4688","Event":"All Good Bookshop","fldsize":"6.3","fldtype":"diagnosed","id":"4688","_umap_options":{"showLabel": 0}}},
{"type": "Feature","geometry":{"coordinates": [-0.094718,51.598005],"type":"Point"},"properties":{"Address":"N225DJ","name":"Christelle","hfrecnum":"4687","Event":"All Good Bookshop","fldsize":"6.3","fldtype":"Beyond Repair","id":"4687","_umap_options":{"showLabel": 0}}},
{"type": "Feature","geometry":{"coordinates": [-0.096237,51.593878],"type":"Point"},"properties":{"Address":"N226QS","name":"Jade","hfrecnum":"4686","Event":"All Good Bookshop","fldsize":"6.3","fldtype":"fixed","id":"4686","_umap_options":{"showLabel": 0}}},
{"type": "Feature","geometry":{"coordinates": [-0.114396,51.607127],"type":"Point"},"properties":{"Address":"N228RF","name":"Gustavo","hfrecnum":"4685","Event":"All Good Bookshop","fldsize":"6.3","fldtype":"Self-repair","id":"4685","_umap_options":{"showLabel": 0}}},
{"type": "Feature","geometry":{"coordinates": [-0.117976,51.578516],"type":"Point"},"properties":{"Address":"N89HR","name":"Erica","hfrecnum":"4684","Event":"All Good Bookshop","fldsize":"6.3","fldtype":"fixed","id":"4684","_umap_options":{"showLabel": 0}}},
{"type": "Feature","geometry":{"coordinates": [-0.015877,51.626257],"type":"Point"},"properties":{"Address":"E48BS","name":"Rafiq","hfrecnum":"4683","Event":"All Good Bookshop","fldsize":"6.3","fldtype":"Beyond Repair","id":"4683","_umap_options":{"showLabel": 0}}},
{"type": "Feature","geometry":{"coordinates": [-0.015877,51.626257],"type":"Point"},"properties":{"Address":"E48BS","name":"Rafiq","hfrecnum":"4682","Event":"All Good Bookshop","fldsize":"6.3","fldtype":"Beyond Repair","id":"4682","_umap_options":{"showLabel": 0}}},
{"type": "Feature","geometry":{"coordinates": [-0.064134,51.596354],"type":"Point"},"properties":{"Address":"N179RS","name":"Maud","hfrecnum":"4681","Event":"All Good Bookshop","fldsize":"6.3","fldtype":"fixed","id":"4681","_umap_options":{"showLabel": 0}}},
{"type": "Feature","geometry":{"coordinates": [-0.084505,51.595717],"type":"Point"},"properties":{"Address":"N176HG","name":"Filiz","hfrecnum":"4672","Event":"Campsbourne","fldsize":"6.3","fldtype":"Beyond Repair","id":"4672","_umap_options":{"showLabel": 0}}},
{"type": "Feature","geometry":{"coordinates": [-0.126415,51.589146],"type":"Point"},"properties":{"Address":"N87ND","name":"Jude","hfrecnum":"4671","Event":"Campsbourne","fldsize":"6.3","fldtype":"fixed","id":"4671","_umap_options":{"showLabel": 0}}},
{"type": "Feature","geometry":{"coordinates": [-0.121616,51.589728],"type":"Point"},"properties":{"Address":"N87AD","name":"Steve","hfrecnum":"4670","Event":"Campsbourne","fldsize":"6.3","fldtype":"diagnosed","id":"4670","_umap_options":{"showLabel": 0}}},
{"type": "Feature","geometry":{"coordinates": [-0.119059,51.590128],"type":"Point"},"properties":{"Address":"N87BD","name":"Tonie","hfrecnum":"4669","Event":"Campsbourne","fldsize":"6.3","fldtype":"diagnosed","id":"4669","_umap_options":{"showLabel": 0}}},
{"type": "Feature","geometry":{"coordinates": [-0.124917,51.589502],"type":"Point"},"properties":{"Address":"N87NE","name":"Jo-an","hfrecnum":"4668","Event":"Campsbourne","fldsize":"6.3","fldtype":"Unable to fix","id":"4668","_umap_options":{"showLabel": 0}}},
{"type": "Feature","geometry":{"coordinates": [-0.123653,51.588286],"type":"Point"},"properties":{"Address":"N87RA","name":"Emerson","hfrecnum":"4667","Event":"Campsbourne","fldsize":"6.3","fldtype":"fixed","id":"4667","_umap_options":{"showLabel": 0}}},
{"type": "Feature","geometry":{"coordinates": [-0.084505,51.595717],"type":"Point"},"properties":{"Address":"N176HG","name":"lee","hfrecnum":"4666","Event":"Campsbourne","fldsize":"6.3","fldtype":"Unable to fix","id":"4666","_umap_options":{"showLabel": 0}}},
{"type": "Feature","geometry":{"coordinates": [-0.126415,51.589146],"type":"Point"},"properties":{"Address":"N87ND","name":"Jude","hfrecnum":"4665","Event":"Campsbourne","fldsize":"6.3","fldtype":"Self-repair","id":"4665","_umap_options":{"showLabel": 0}}},
{"type": "Feature","geometry":{"coordinates": [-0.121616,51.589728],"type":"Point"},"properties":{"Address":"N87AD","name":"Anna","hfrecnum":"4664","Event":"Campsbourne","fldsize":"6.3","fldtype":"diagnosed","id":"4664","_umap_options":{"showLabel": 0}}},
{"type": "Feature","geometry":{"coordinates": [-0.121616,51.589728],"type":"Point"},"properties":{"Address":"N87AD","name":"Paulette","hfrecnum":"4663","Event":"Campsbourne","fldsize":"6.3","fldtype":"fixed","id":"4663","_umap_options":{"showLabel": 0}}},
{"type": "Feature","geometry":{"coordinates": [-0.124846,51.590101],"type":"Point"},"properties":{"Address":"N87LY","name":"Janet","hfrecnum":"4662","Event":"Campsbourne","fldsize":"6.3","fldtype":"Beyond Repair","id":"4662","_umap_options":{"showLabel": 0}}},
{"type": "Feature","geometry":{"coordinates": [-0.084505,51.595717],"type":"Point"},"properties":{"Address":"N176HG","name":"Naomi","hfrecnum":"4655","Event":"Campsbourne","fldsize":"6.3","fldtype":"attended1","id":"4655","_umap_options":{"showLabel": 0}}},
{"type": "Feature","geometry":{"coordinates": [-0.084505,51.595717],"type":"Point"},"properties":{"Address":"N176HG","name":"Jay","hfrecnum":"4652","Event":"Lordship Hub","fldsize":"6.3","fldtype":"fixed","id":"4652","_umap_options":{"showLabel": 0}}},
{"type": "Feature","geometry":{"coordinates": [-0.079197,51.563419],"type":"Point"},"properties":{"Address":"N160AJ","name":"Lorna","hfrecnum":"4647","Event":"Lordship Hub","fldsize":"6.3","fldtype":"diagnosed","id":"4647","_umap_options":{"showLabel": 0}}},
{"type": "Feature","geometry":{"coordinates": [-0.068724,51.564048],"type":"Point"},"properties":{"Address":"N167AB","name":"Yasmin","hfrecnum":"4645","Event":"Lordship Hub","fldsize":"6.3","fldtype":"fixed","id":"4645","_umap_options":{"showLabel": 0}}},
{"type": "Feature","geometry":{"coordinates": [-0.079971,51.574502],"type":"Point"},"properties":{"Address":"N165DL","name":"mahandra","hfrecnum":"4644","Event":"Lordship Hub","fldsize":"6.3","fldtype":"diagnosed","id":"4644","_umap_options":{"showLabel": 0}}},
{"type": "Feature","geometry":{"coordinates": [-0.083081,51.589768],"type":"Point"},"properties":{"Address":"N176DB","name":"Tetiana","hfrecnum":"4643","Event":"Lordship Hub","fldsize":"6.3","fldtype":"fixed","id":"4643","_umap_options":{"showLabel": 0}}},
{"type": "Feature","geometry":{"coordinates": [-0.080831,51.592197],"type":"Point"},"properties":{"Address":"N176BZ","name":"Chloe","hfrecnum":"4642","Event":"Lordship Hub","fldsize":"6.3","fldtype":"fixed","id":"4642","_umap_options":{"showLabel": 0}}},
{"type": "Feature","geometry":{"coordinates": [-0.126046,51.60163],"type":"Point"},"properties":{"Address":"N227RX","name":"Laura","hfrecnum":"4641","Event":"Lordship Hub","fldsize":"6.3","fldtype":"fixed","id":"4641","_umap_options":{"showLabel": 0}}},
{"type": "Feature","geometry":{"coordinates": [-0.134863,51.554533],"type":"Point"},"properties":{"Address":"N70RH","name":"Assia","hfrecnum":"4640","Event":"Lordship Hub","fldsize":"6.3","fldtype":"fixed","id":"4640","_umap_options":{"showLabel": 0}}},
{"type": "Feature","geometry":{"coordinates": [-0.102917,51.596672],"type":"Point"},"properties":{"Address":"N226PD","name":"Pam","hfrecnum":"4639","Event":"Lordship Hub","fldsize":"6.3","fldtype":"partial fix","id":"4639","_umap_options":{"showLabel": 0}}},
{"type": "Feature","geometry":{"coordinates": [-0.077673,51.594843],"type":"Point"},"properties":{"Address":"N176HJ","name":"Marie","hfrecnum":"4638","Event":"Lordship Hub","fldsize":"6.3","fldtype":"Unable to fix","id":"4638","_umap_options":{"showLabel": 0}}},
{"type": "Feature","geometry":{"coordinates": [-0.097586,51.594671],"type":"Point"},"properties":{"Address":"N226SE","name":"Dipo","hfrecnum":"4637","Event":"Lordship Hub","fldsize":"6.3","fldtype":"attended1","id":"4637","_umap_options":{"showLabel": 0}}},
{"type": "Feature","geometry":{"coordinates": [-0.097586,51.594671],"type":"Point"},"properties":{"Address":"N226SE","name":"Dipo","hfrecnum":"4636","Event":"Lordship Hub","fldsize":"6.3","fldtype":"fixed","id":"4636","_umap_options":{"showLabel": 0}}},
{"type": "Feature","geometry":{"coordinates": [-0.145199,51.555842],"type":"Point"},"properties":{"Address":"NW51BL","name":"Cleo","hfrecnum":"4635","Event":"Lordship Hub","fldsize":"6.3","fldtype":"attended1","id":"4635","_umap_options":{"showLabel": 0}}},
{"type": "Feature","geometry":{"coordinates": [-0.084505,51.595717],"type":"Point"},"properties":{"Address":"N176HG","name":"","hfrecnum":"4632","Event":"Broadwater Farm","fldsize":"6.3","fldtype":"Beyond Repair","id":"4632","_umap_options":{"showLabel": 0}}},
{"type": "Feature","geometry":{"coordinates": [-0.057938,51.583212],"type":"Point"},"properties":{"Address":"N179PW","name":"Quentin","hfrecnum":"4631","Event":"Broadwater Farm","fldsize":"6.3","fldtype":"fixed","id":"4631","_umap_options":{"showLabel": 0}}},
{"type": "Feature","geometry":{"coordinates": [-0.057938,51.583212],"type":"Point"},"properties":{"Address":"N179PW","name":"Quentin","hfrecnum":"4630","Event":"Broadwater Farm","fldsize":"6.3","fldtype":"diagnosed","id":"4630","_umap_options":{"showLabel": 0}}},
{"type": "Feature","geometry":{"coordinates": [-0.116866,51.443943],"type":"Point"},"properties":{"Address":"SW23QR","name":"Sam","hfrecnum":"4629","Event":"Broadwater Farm","fldsize":"6.3","fldtype":"fixed","id":"4629","_umap_options":{"showLabel": 0}}},
{"type": "Feature","geometry":{"coordinates": [-0.115983,51.577921],"type":"Point"},"properties":{"Address":"N89SA","name":"Carmina","hfrecnum":"4628","Event":"Broadwater Farm","fldsize":"6.3","fldtype":"partial fix","id":"4628","_umap_options":{"showLabel": 0}}},
{"type": "Feature","geometry":{"coordinates": [-0.097329,51.597023],"type":"Point"},"properties":{"Address":"N226JN","name":"Chrystine","hfrecnum":"4627","Event":"Broadwater Farm","fldsize":"6.3","fldtype":"diagnosed","id":"4627","_umap_options":{"showLabel": 0}}},
{"type": "Feature","geometry":{"coordinates": [-0.084505,51.595717],"type":"Point"},"properties":{"Address":"N176HG","name":"Jay","hfrecnum":"4626","Event":"Broadwater Farm","fldsize":"6.3","fldtype":"Unable to fix","id":"4626","_umap_options":{"showLabel": 0}}},
{"type": "Feature","geometry":{"coordinates": [-0.099244,51.589988],"type":"Point"},"properties":{"Address":"N153EJ","name":"Tracy","hfrecnum":"4625","Event":"Broadwater Farm","fldsize":"6.3","fldtype":"fixed later","id":"4625","_umap_options":{"showLabel": 0}}},
{"type": "Feature","geometry":{"coordinates": [-0.122229,51.529953],"type":"Point"},"properties":{"Address":"WC1H8BB","name":"Angel","hfrecnum":"4624","Event":"Broadwater Farm","fldsize":"6.3","fldtype":"REFUSED","id":"4624","_umap_options":{"showLabel": 0}}},
{"type": "Feature","geometry":{"coordinates": [-0.114396,51.607127],"type":"Point"},"properties":{"Address":"N228RF","name":"Gustavo","hfrecnum":"4622","Event":"Broadwater Farm","fldsize":"6.3","fldtype":"diagnosed","id":"4622","_umap_options":{"showLabel": 0}}},
{"type": "Feature","geometry":{"coordinates": [-0.114396,51.607127],"type":"Point"},"properties":{"Address":"N228RF","name":"Gustavo","hfrecnum":"4621","Event":"Broadwater Farm","fldsize":"6.3","fldtype":"Beyond Repair","id":"4621","_umap_options":{"showLabel": 0}}},
{"type": "Feature","geometry":{"coordinates": [-0.097329,51.597023],"type":"Point"},"properties":{"Address":"N226JN","name":"Chrystine","hfrecnum":"4620","Event":"Broadwater Farm","fldsize":"6.3","fldtype":"diagnosed","id":"4620","_umap_options":{"showLabel": 0}}},
{"type": "Feature","geometry":{"coordinates": [-0.078208,51.594733],"type":"Point"},"properties":{"Address":"N176JQ","name":"Camille","hfrecnum":"4618","Event":"Broadwater Farm","fldsize":"6.3","fldtype":"diagnosed","id":"4618","_umap_options":{"showLabel": 0}}},
{"type": "Feature","geometry":{"coordinates": [-0.084505,51.595717],"type":"Point"},"properties":{"Address":"N176HG","name":"Ella","hfrecnum":"4617","Event":"Broadwater Farm","fldsize":"6.3","fldtype":"fixed","id":"4617","_umap_options":{"showLabel": 0}}},
{"type": "Feature","geometry":{"coordinates": [-0.084505,51.595717],"type":"Point"},"properties":{"Address":"N176HG","name":"Ella","hfrecnum":"4616","Event":"Broadwater Farm","fldsize":"6.3","fldtype":"fixed","id":"4616","_umap_options":{"showLabel": 0}}},
{"type": "Feature","geometry":{"coordinates": [-0.084505,51.595717],"type":"Point"},"properties":{"Address":"N176HG","name":"Charles","hfrecnum":"4613","Event":"Broadwater Farm","fldsize":"6.3","fldtype":"fixed","id":"4613","_umap_options":{"showLabel": 0}}},
{"type": "Feature","geometry":{"coordinates": [-0.084505,51.595717],"type":"Point"},"properties":{"Address":"N176HG","name":"Aurea","hfrecnum":"4612","Event":"Broadwater Farm","fldsize":"6.3","fldtype":"fixed","id":"4612","_umap_options":{"showLabel": 0}}},
{"type": "Feature","geometry":{"coordinates": [-0.057938,51.583212],"type":"Point"},"properties":{"Address":"N179PW","name":"Quentin","hfrecnum":"4611","Event":"Broadwater Farm","fldsize":"6.3","fldtype":"Self-repair","id":"4611","_umap_options":{"showLabel": 0}}},
{"type": "Feature","geometry":{"coordinates": [-0.105364,51.589665],"type":"Point"},"properties":{"Address":"N80EP","name":"","hfrecnum":"4607","Event":"All Good Bookshop","fldsize":"6.3","fldtype":"diagnosed","id":"4607","_umap_options":{"showLabel": 0}}},
{"type": "Feature","geometry":{"coordinates": [-0.107383,51.591016],"type":"Point"},"properties":{"Address":"N80QG","name":"Camilla","hfrecnum":"4606","Event":"All Good Bookshop","fldsize":"6.3","fldtype":"fixed","id":"4606","_umap_options":{"showLabel": 0}}},
{"type": "Feature","geometry":{"coordinates": [-0.107383,51.591016],"type":"Point"},"properties":{"Address":"N80QG","name":"Camilla","hfrecnum":"4605","Event":"All Good Bookshop","fldsize":"6.3","fldtype":"fixed","id":"4605","_umap_options":{"showLabel": 0}}},
{"type": "Feature","geometry":{"coordinates": [-0.098303,51.591337],"type":"Point"},"properties":{"Address":"N226AA","name":"Kerry-Ann","hfrecnum":"4603","Event":"All Good Bookshop","fldsize":"6.3","fldtype":"partial fix","id":"4603","_umap_options":{"showLabel": 0}}},
{"type": "Feature","geometry":{"coordinates": [-0.031903,51.575423],"type":"Point"},"properties":{"Address":"E178BW","name":"ALASTAIR","hfrecnum":"4601","Event":"All Good Bookshop","fldsize":"6.3","fldtype":"diagnosed","id":"4601","_umap_options":{"showLabel": 0}}},
{"type": "Feature","geometry":{"coordinates": [-0.031903,51.575423],"type":"Point"},"properties":{"Address":"E178BW","name":"ALASTAIR","hfrecnum":"4600","Event":"All Good Bookshop","fldsize":"6.3","fldtype":"diagnosed","id":"4600","_umap_options":{"showLabel": 0}}},
{"type": "Feature","geometry":{"coordinates": [-0.117478,51.580801],"type":"Point"},"properties":{"Address":"N89BN","name":"Matthew","hfrecnum":"4598","Event":"All Good Bookshop","fldsize":"6.3","fldtype":"Unable to fix","id":"4598","_umap_options":{"showLabel": 0}}},
{"type": "Feature","geometry":{"coordinates": [-0.116647,51.579667],"type":"Point"},"properties":{"Address":"N89SE","name":"Vanessa","hfrecnum":"4597","Event":"All Good Bookshop","fldsize":"6.3","fldtype":"diagnosed","id":"4597","_umap_options":{"showLabel": 0}}},
{"type": "Feature","geometry":{"coordinates": [-0.126046,51.60163],"type":"Point"},"properties":{"Address":"N227RX","name":"Laura","hfrecnum":"4596","Event":"All Good Bookshop","fldsize":"6.3","fldtype":"fixed","id":"4596","_umap_options":{"showLabel": 0}}},
{"type": "Feature","geometry":{"coordinates": [-0.095599,51.585223],"type":"Point"},"properties":{"Address":"N153RQ","name":"Aviva","hfrecnum":"4595","Event":"All Good Bookshop","fldsize":"6.3","fldtype":"unknown","id":"4595","_umap_options":{"showLabel": 0}}},
{"type": "Feature","geometry":{"coordinates": [-0.118368,51.603723],"type":"Point"},"properties":{"Address":"N228DH","name":"Robert","hfrecnum":"4594","Event":"All Good Bookshop","fldsize":"6.3","fldtype":"unknown","id":"4594","_umap_options":{"showLabel": 0}}},
{"type": "Feature","geometry":{"coordinates": [-0.11818,51.600128],"type":"Point"},"properties":{"Address":"N227BY","name":"Andrew","hfrecnum":"4593","Event":"All Good Bookshop","fldsize":"6.3","fldtype":"bringer2fix","id":"4593","_umap_options":{"showLabel": 0}}},
{"type": "Feature","geometry":{"coordinates": [-0.128651,51.578367],"type":"Point"},"properties":{"Address":"N88HT","name":"Pam","hfrecnum":"4592","Event":"All Good Bookshop","fldsize":"6.3","fldtype":"REFUSED","id":"4592","_umap_options":{"showLabel": 0}}},
{"type": "Feature","geometry":{"coordinates": [-0.096599,51.607928],"type":"Point"},"properties":{"Address":"N136AJ","name":"Wai","hfrecnum":"4591","Event":"All Good Bookshop","fldsize":"6.3","fldtype":"Self-repair","id":"4591","_umap_options":{"showLabel": 0}}},
{"type": "Feature","geometry":{"coordinates": [-0.084505,51.595717],"type":"Point"},"properties":{"Address":"N176HG","name":"internal","hfrecnum":"4585","Event":"Lordship Hub","fldsize":"6.3","fldtype":"interim retry","id":"4585","_umap_options":{"showLabel": 0}}},
{"type": "Feature","geometry":{"coordinates": [-0.084505,51.595717],"type":"Point"},"properties":{"Address":"N176HG","name":"internal","hfrecnum":"4584","Event":"Lordship Hub","fldsize":"6.3","fldtype":"Unable to fix","id":"4584","_umap_options":{"showLabel": 0}}},
{"type": "Feature","geometry":{"coordinates": [-0.182152,51.617821],"type":"Point"},"properties":{"Address":"N128RY","name":"Vitali","hfrecnum":"4583","Event":"Lordship Hub","fldsize":"6.3","fldtype":"diagnosed","id":"4583","_umap_options":{"showLabel": 0}}},
{"type": "Feature","geometry":{"coordinates": [-0.107978,51.598229],"type":"Point"},"properties":{"Address":"N225ND","name":"Tania","hfrecnum":"4582","Event":"Lordship Hub","fldsize":"6.3","fldtype":"Self-repair","id":"4582","_umap_options":{"showLabel": 0}}},
{"type": "Feature","geometry":{"coordinates": [-0.055895,51.53773],"type":"Point"},"properties":{"Address":"E97RF","name":"Serena","hfrecnum":"4581","Event":"Lordship Hub","fldsize":"6.3","fldtype":"fixed","id":"4581","_umap_options":{"showLabel": 0}}},
{"type": "Feature","geometry":{"coordinates": [-0.077284,51.553694],"type":"Point"},"properties":{"Address":"N168DL","name":"Tom","hfrecnum":"4580","Event":"Lordship Hub","fldsize":"6.3","fldtype":"fixed","id":"4580","_umap_options":{"showLabel": 0}}},
{"type": "Feature","geometry":{"coordinates": [-0.131643,51.598608],"type":"Point"},"properties":{"Address":"N227BH","name":"Kirsten","hfrecnum":"4579","Event":"Lordship Hub","fldsize":"6.3","fldtype":"diagnosed","id":"4579","_umap_options":{"showLabel": 0}}},
{"type": "Feature","geometry":{"coordinates": [-0.121616,51.589728],"type":"Point"},"properties":{"Address":"N87AD","name":"Anna","hfrecnum":"4578","Event":"Lordship Hub","fldsize":"6.3","fldtype":"Unable to fix","id":"4578","_umap_options":{"showLabel": 0}}},
{"type": "Feature","geometry":{"coordinates": [-0.113438,51.613247],"type":"Point"},"properties":{"Address":"N134NH","name":"Bee-Dwo","hfrecnum":"4576","Event":"Lordship Hub","fldsize":"6.3","fldtype":"diagnosed","id":"4576","_umap_options":{"showLabel": 0}}},
{"type": "Feature","geometry":{"coordinates": [-0.095721,51.574039],"type":"Point"},"properties":{"Address":"N41DH","name":"Annie","hfrecnum":"4575","Event":"Lordship Hub","fldsize":"6.3","fldtype":"fixed","id":"4575","_umap_options":{"showLabel": 0}}},
{"type": "Feature","geometry":{"coordinates": [-0.084505,51.595717],"type":"Point"},"properties":{"Address":"N176HG","name":"Annie","hfrecnum":"4574","Event":"Lordship Hub","fldsize":"6.3","fldtype":"fixed","id":"4574","_umap_options":{"showLabel": 0}}},
{"type": "Feature","geometry":{"coordinates": [-0.102584,51.578406],"type":"Point"},"properties":{"Address":"N41RT","name":"Polly","hfrecnum":"4573","Event":"Lordship Hub","fldsize":"6.3","fldtype":"Unable to fix","id":"4573","_umap_options":{"showLabel": 0}}},
{"type": "Feature","geometry":{"coordinates": [-0.078529,51.5968],"type":"Point"},"properties":{"Address":"N176HD","name":"laure","hfrecnum":"4572","Event":"Lordship Hub","fldsize":"6.3","fldtype":"fixed","id":"4572","_umap_options":{"showLabel": 0}}},
{"type": "Feature","geometry":{"coordinates": [-0.006212,51.580079],"type":"Point"},"properties":{"Address":"E179JD","name":"Richard","hfrecnum":"4571","Event":"Lordship Hub","fldsize":"6.3","fldtype":"","id":"4571","_umap_options":{"showLabel": 0}}},
{"type": "Feature","geometry":{"coordinates": [-0.017426,51.466674],"type":"Point"},"properties":{"Address":"SE137SD","name":"mengting","hfrecnum":"4570","Event":"Lordship Hub","fldsize":"6.3","fldtype":"fixed","id":"4570","_umap_options":{"showLabel": 0}}},
{"type": "Feature","geometry":{"coordinates": [-0.087004,51.592251],"type":"Point"},"properties":{"Address":"N176NU","name":"Bee Moore","hfrecnum":"4569","Event":"Lordship Hub","fldsize":"6.3","fldtype":"fixed","id":"4569","_umap_options":{"showLabel": 0}}},
{"type": "Feature","geometry":{"coordinates": [-0.113312,51.576223],"type":"Point"},"properties":{"Address":"N44HX","name":"Gwyn","hfrecnum":"4566","Event":"Broadwater Farm","fldsize":"6.3","fldtype":"Unable to fix","id":"4566","_umap_options":{"showLabel": 0}}},
{"type": "Feature","geometry":{"coordinates": [-0.079971,51.574502],"type":"Point"},"properties":{"Address":"N165DL","name":"mahandra","hfrecnum":"4565","Event":"Broadwater Farm","fldsize":"6.3","fldtype":"partial fix","id":"4565","_umap_options":{"showLabel": 0}}},
{"type": "Feature","geometry":{"coordinates": [-0.110191,51.6058],"type":"Point"},"properties":{"Address":"N225HX","name":"Sonia","hfrecnum":"4564","Event":"Broadwater Farm","fldsize":"6.3","fldtype":"Unable to fix","id":"4564","_umap_options":{"showLabel": 0}}},
{"type": "Feature","geometry":{"coordinates": [-0.016776,51.584412],"type":"Point"},"properties":{"Address":"E179SE","name":"Lukas","hfrecnum":"4563","Event":"Broadwater Farm","fldsize":"6.3","fldtype":"fixed","id":"4563","_umap_options":{"showLabel": 0}}},
{"type": "Feature","geometry":{"coordinates": [-0.067462,51.596526],"type":"Point"},"properties":{"Address":"N179GB","name":"Beata","hfrecnum":"4561","Event":"Broadwater Farm","fldsize":"6.3","fldtype":"Unable to fix","id":"4561","_umap_options":{"showLabel": 0}}},
{"type": "Feature","geometry":{"coordinates": [-0.055895,51.53773],"type":"Point"},"properties":{"Address":"E97RF","name":"Serena","hfrecnum":"4560","Event":"Broadwater Farm","fldsize":"6.3","fldtype":"fixed","id":"4560","_umap_options":{"showLabel": 0}}},
{"type": "Feature","geometry":{"coordinates": [-0.017426,51.466674],"type":"Point"},"properties":{"Address":"SE137SD","name":"mengting","hfrecnum":"4557","Event":"Broadwater Farm","fldsize":"6.3","fldtype":"partial fix","id":"4557","_umap_options":{"showLabel": 0}}},
{"type": "Feature","geometry":{"coordinates": [-0.083081,51.589768],"type":"Point"},"properties":{"Address":"N176DB","name":"Tetiana","hfrecnum":"4556","Event":"Broadwater Farm","fldsize":"6.3","fldtype":"Unable to fix","id":"4556","_umap_options":{"showLabel": 0}}},
{"type": "Feature","geometry":{"coordinates": [-0.098965,51.602454],"type":"Point"},"properties":{"Address":"N225BN","name":"Scott","hfrecnum":"4555","Event":"Broadwater Farm","fldsize":"6.3","fldtype":"Self-repair","id":"4555","_umap_options":{"showLabel": 0}}},
{"type": "Feature","geometry":{"coordinates": [-0.182152,51.617821],"type":"Point"},"properties":{"Address":"N128RY","name":"Vitali","hfrecnum":"4554","Event":"Broadwater Farm","fldsize":"6.3","fldtype":"partial fix","id":"4554","_umap_options":{"showLabel": 0}}},
{"type": "Feature","geometry":{"coordinates": [-0.087569,51.585336],"type":"Point"},"properties":{"Address":"N155BE","name":"Jess","hfrecnum":"4553","Event":"Broadwater Farm","fldsize":"6.3","fldtype":"diagnosed","id":"4553","_umap_options":{"showLabel": 0}}},
{"type": "Feature","geometry":{"coordinates": [-0.021741,51.621312],"type":"Point"},"properties":{"Address":"E48DY","name":"Norma","hfrecnum":"4549","Event":"Broadwater Farm","fldsize":"6.3","fldtype":"fixed","id":"4549","_umap_options":{"showLabel": 0}}},
{"type": "Feature","geometry":{"coordinates": [-0.133088,51.554892],"type":"Point"},"properties":{"Address":"N70RB","name":"Assia","hfrecnum":"4548","Event":"Broadwater Farm","fldsize":"6.3","fldtype":"diagnosed","id":"4548","_umap_options":{"showLabel": 0}}},
{"type": "Feature","geometry":{"coordinates": [-0.078529,51.5968],"type":"Point"},"properties":{"Address":"N176HD","name":"Laure","hfrecnum":"4547","Event":"Broadwater Farm","fldsize":"6.3","fldtype":"Unable to fix","id":"4547","_umap_options":{"showLabel": 0}}},
{"type": "Feature","geometry":{"coordinates": [-0.087004,51.592251],"type":"Point"},"properties":{"Address":"N176NU","name":"Carola","hfrecnum":"4546","Event":"Broadwater Farm","fldsize":"6.3","fldtype":"fixed","id":"4546","_umap_options":{"showLabel": 0}}},
{"type": "Feature","geometry":{"coordinates": [-0.096643,51.59238],"type":"Point"},"properties":{"Address":"N226AD","name":"Doris","hfrecnum":"4545","Event":"Broadwater Farm","fldsize":"6.3","fldtype":"diagnosed","id":"4545","_umap_options":{"showLabel": 0}}},
{"type": "Feature","geometry":{"coordinates": [-0.084505,51.595717],"type":"Point"},"properties":{"Address":"N176HG","name":"Joanne","hfrecnum":"4544","Event":"Broadwater Farm","fldsize":"6.3","fldtype":"","id":"4544","_umap_options":{"showLabel": 0}}},
{"type": "Feature","geometry":{"coordinates": [-0.086296,51.550343],"type":"Point"},"properties":{"Address":"N14RD","name":"Jasmine","hfrecnum":"4541","Event":"All Good Bookshop","fldsize":"6.3","fldtype":"fixed","id":"4541","_umap_options":{"showLabel": 0}}},
{"type": "Feature","geometry":{"coordinates": [-0.120627,51.608369],"type":"Point"},"properties":{"Address":"N112QS","name":"Tere","hfrecnum":"4540","Event":"All Good Bookshop","fldsize":"6.3","fldtype":"fixed","id":"4540","_umap_options":{"showLabel": 0}}},
{"type": "Feature","geometry":{"coordinates": [-0.120627,51.608369],"type":"Point"},"properties":{"Address":"N112QS","name":"Tere","hfrecnum":"4539","Event":"All Good Bookshop","fldsize":"6.3","fldtype":"Unable to fix","id":"4539","_umap_options":{"showLabel": 0}}},
{"type": "Feature","geometry":{"coordinates": [-0.102134,51.577353],"type":"Point"},"properties":{"Address":"N41RY","name":"Karen","hfrecnum":"4538","Event":"All Good Bookshop","fldsize":"6.3","fldtype":"Unable to fix","id":"4538","_umap_options":{"showLabel": 0}}},
{"type": "Feature","geometry":{"coordinates": [-0.145045,51.587193],"type":"Point"},"properties":{"Address":"N103NE","name":"Josephine","hfrecnum":"4537","Event":"All Good Bookshop","fldsize":"6.3","fldtype":"Unable to fix","id":"4537","_umap_options":{"showLabel": 0}}},
{"type": "Feature","geometry":{"coordinates": [-0.102568,51.592917],"type":"Point"},"properties":{"Address":"N226XT","name":"Lillian","hfrecnum":"4536","Event":"All Good Bookshop","fldsize":"6.3","fldtype":"Unable to fix","id":"4536","_umap_options":{"showLabel": 0}}},
{"type": "Feature","geometry":{"coordinates": [-0.121064,51.584834],"type":"Point"},"properties":{"Address":"N87JR","name":"Jill","hfrecnum":"4535","Event":"All Good Bookshop","fldsize":"6.3","fldtype":"Self-repair","id":"4535","_umap_options":{"showLabel": 0}}},
{"type": "Feature","geometry":{"coordinates": [-0.098303,51.591337],"type":"Point"},"properties":{"Address":"N226AA","name":"Kerry-Ann","hfrecnum":"4534","Event":"All Good Bookshop","fldsize":"6.3","fldtype":"fixed","id":"4534","_umap_options":{"showLabel": 0}}},
{"type": "Feature","geometry":{"coordinates": [-0.128651,51.578367],"type":"Point"},"properties":{"Address":"N88HT","name":"Pam","hfrecnum":"4533","Event":"All Good Bookshop","fldsize":"6.3","fldtype":"fixed","id":"4533","_umap_options":{"showLabel": 0}}},
{"type": "Feature","geometry":{"coordinates": [-0.117976,51.578516],"type":"Point"},"properties":{"Address":"N89HR","name":"ERICA","hfrecnum":"4530","Event":"All Good Bookshop","fldsize":"6.3","fldtype":"Unable to fix","id":"4530","_umap_options":{"showLabel": 0}}},
{"type": "Feature","geometry":{"coordinates": [0.001934,51.572323],"type":"Point"},"properties":{"Address":"E111EY","name":"Dolores","hfrecnum":"4529","Event":"All Good Bookshop","fldsize":"6.3","fldtype":"partial fix","id":"4529","_umap_options":{"showLabel": 0}}},
{"type": "Feature","geometry":{"coordinates": [-0.127538,51.61204],"type":"Point"},"properties":{"Address":"N112LG","name":"Anna","hfrecnum":"4527","Event":"All Good Bookshop","fldsize":"6.3","fldtype":"diagnosed","id":"4527","_umap_options":{"showLabel": 0}}},
{"type": "Feature","geometry":{"coordinates": [-0.115324,51.598053],"type":"Point"},"properties":{"Address":"N227TW","name":"Caroline","hfrecnum":"4526","Event":"All Good Bookshop","fldsize":"6.3","fldtype":"Unable to fix","id":"4526","_umap_options":{"showLabel": 0}}},
{"type": "Feature","geometry":{"coordinates": [-0.099495,51.579738],"type":"Point"},"properties":{"Address":"N41HE","name":"Satish","hfrecnum":"4525","Event":"All Good Bookshop","fldsize":"6.3","fldtype":"Unable to fix","id":"4525","_umap_options":{"showLabel": 0}}},
{"type": "Feature","geometry":{"coordinates": [-0.099495,51.579738],"type":"Point"},"properties":{"Address":"N41HE","name":"Satish","hfrecnum":"4524","Event":"All Good Bookshop","fldsize":"6.3","fldtype":"Unable to fix","id":"4524","_umap_options":{"showLabel": 0}}},
{"type": "Feature","geometry":{"coordinates": [-0.10597,51.586452],"type":"Point"},"properties":{"Address":"N80QT","name":"Melanie","hfrecnum":"4523","Event":"All Good Bookshop","fldsize":"6.3","fldtype":"diagnosed","id":"4523","_umap_options":{"showLabel": 0}}},
{"type": "Feature","geometry":{"coordinates": [-0.099852,51.590904],"type":"Point"},"properties":{"Address":"N153NH","name":"Stephen","hfrecnum":"4522","Event":"All Good Bookshop","fldsize":"6.3","fldtype":"Self-repair","id":"4522","_umap_options":{"showLabel": 0}}},
{"type": "Feature","geometry":{"coordinates": [-0.031903,51.575423],"type":"Point"},"properties":{"Address":"E178BW","name":"Kirsty","hfrecnum":"4520","Event":"All Good Bookshop","fldsize":"6.3","fldtype":"Self-repair","id":"4520","_umap_options":{"showLabel": 0}}},
{"type": "Feature","geometry":{"coordinates": [-0.087004,51.592251],"type":"Point"},"properties":{"Address":"N176NU","name":"Vitali","hfrecnum":"4517","Event":"Lordship Hub","fldsize":"6.3","fldtype":"partial fix","id":"4517","_umap_options":{"showLabel": 0}}},
{"type": "Feature","geometry":{"coordinates": [-0.053906,51.553596],"type":"Point"},"properties":{"Address":"E58TR","name":"Yewande","hfrecnum":"4516","Event":"Lordship Hub","fldsize":"6.3","fldtype":"diagnosed","id":"4516","_umap_options":{"showLabel": 0}}},
{"type": "Feature","geometry":{"coordinates": [-0.053906,51.553596],"type":"Point"},"properties":{"Address":"E58TR","name":"Yewande","hfrecnum":"4515","Event":"Lordship Hub","fldsize":"6.3","fldtype":"fixed","id":"4515","_umap_options":{"showLabel": 0}}},
{"type": "Feature","geometry":{"coordinates": [-0.078331,51.584978],"type":"Point"},"properties":{"Address":"N155DE","name":"M","hfrecnum":"4514","Event":"Lordship Hub","fldsize":"6.3","fldtype":"fixed","id":"4514","_umap_options":{"showLabel": 0}}},
{"type": "Feature","geometry":{"coordinates": [-0.086643,51.58881],"type":"Point"},"properties":{"Address":"N176PN","name":"Kate","hfrecnum":"4513","Event":"Lordship Hub","fldsize":"6.3","fldtype":"Unable to fix","id":"4513","_umap_options":{"showLabel": 0}}},
{"type": "Feature","geometry":{"coordinates": [-0.15058,51.600194],"type":"Point"},"properties":{"Address":"N101AB","name":"Shane","hfrecnum":"4511","Event":"Lordship Hub","fldsize":"6.3","fldtype":"fixed","id":"4511","_umap_options":{"showLabel": 0}}},
{"type": "Feature","geometry":{"coordinates": [-0.081073,51.591857],"type":"Point"},"properties":{"Address":"N176EA","name":"vince","hfrecnum":"4510","Event":"Lordship Hub","fldsize":"6.3","fldtype":"fixed","id":"4510","_umap_options":{"showLabel": 0}}},
{"type": "Feature","geometry":{"coordinates": [-0.078331,51.584978],"type":"Point"},"properties":{"Address":"N155DE","name":"M","hfrecnum":"4509","Event":"Lordship Hub","fldsize":"6.3","fldtype":"fixed","id":"4509","_umap_options":{"showLabel": 0}}},
{"type": "Feature","geometry":{"coordinates": [-0.07222,51.595678],"type":"Point"},"properties":{"Address":"N176UU","name":"Zoe","hfrecnum":"4508","Event":"Lordship Hub","fldsize":"6.3","fldtype":"fixed","id":"4508","_umap_options":{"showLabel": 0}}},
{"type": "Feature","geometry":{"coordinates": [-0.094647,51.602114],"type":"Point"},"properties":{"Address":"N225EH","name":"Shantanu","hfrecnum":"4507","Event":"Lordship Hub","fldsize":"6.3","fldtype":"diagnosed","id":"4507","_umap_options":{"showLabel": 0}}},
{"type": "Feature","geometry":{"coordinates": [-0.077284,51.553694],"type":"Point"},"properties":{"Address":"N168DL","name":"Tom","hfrecnum":"4506","Event":"Lordship Hub","fldsize":"6.3","fldtype":"fixed","id":"4506","_umap_options":{"showLabel": 0}}},
{"type": "Feature","geometry":{"coordinates": [-0.094647,51.602114],"type":"Point"},"properties":{"Address":"N225EH","name":"Shantanu","hfrecnum":"4504","Event":"Lordship Hub","fldsize":"6.3","fldtype":"diagnosed","id":"4504","_umap_options":{"showLabel": 0}}},
{"type": "Feature","geometry":{"coordinates": [-0.110258,51.570785],"type":"Point"},"properties":{"Address":"N43AN","name":"Eleanor","hfrecnum":"4503","Event":"Lordship Hub","fldsize":"6.3","fldtype":"Unable to fix","id":"4503","_umap_options":{"showLabel": 0}}},
{"type": "Feature","geometry":{"coordinates": [-0.016776,51.584412],"type":"Point"},"properties":{"Address":"E179SE","name":"Lukas","hfrecnum":"4502","Event":"Lordship Hub","fldsize":"6.3","fldtype":"partial fix","id":"4502","_umap_options":{"showLabel": 0}}},
{"type": "Feature","geometry":{"coordinates": [-0.09437,51.594601],"type":"Point"},"properties":{"Address":"N226QX","name":"Nik","hfrecnum":"4501","Event":"Lordship Hub","fldsize":"6.3","fldtype":"Unable to fix","id":"4501","_umap_options":{"showLabel": 0}}},
{"type": "Feature","geometry":{"coordinates": [-0.067502,51.545916],"type":"Point"},"properties":{"Address":"E81BZ","name":"Dewi","hfrecnum":"4499","Event":"Lordship Hub","fldsize":"6.3","fldtype":"Unable to fix","id":"4499","_umap_options":{"showLabel": 0}}},
{"type": "Feature","geometry":{"coordinates": [-0.082359,51.58874],"type":"Point"},"properties":{"Address":"N154HJ","name":"Cathy","hfrecnum":"4498","Event":"Lordship Hub","fldsize":"6.3","fldtype":"diagnosed","id":"4498","_umap_options":{"showLabel": 0}}},
{"type": "Feature","geometry":{"coordinates": [-0.090616,51.598721],"type":"Point"},"properties":{"Address":"N177PX","name":"Ruth","hfrecnum":"4497","Event":"Lordship Hub","fldsize":"6.3","fldtype":"Unable to fix","id":"4497","_umap_options":{"showLabel": 0}}},
{"type": "Feature","geometry":{"coordinates": [-0.087004,51.592251],"type":"Point"},"properties":{"Address":"N176NU","name":"Kay Newport","hfrecnum":"4496","Event":"Lordship Hub","fldsize":"6.3","fldtype":"fixed","id":"4496","_umap_options":{"showLabel": 0}}},
{"type": "Feature","geometry":{"coordinates": [-0.201668,51.54019],"type":"Point"},"properties":{"Address":"NW67RJ","name":"Caroline","hfrecnum":"4489","Event":"Broadwater Farm","fldsize":"6.3","fldtype":"","id":"4489","_umap_options":{"showLabel": 0}}},
{"type": "Feature","geometry":{"coordinates": [-0.063016,51.578863],"type":"Point"},"properties":{"Address":"N156BZ","name":"Steven","hfrecnum":"4487","Event":"Broadwater Farm","fldsize":"6.3","fldtype":"fixed","id":"4487","_umap_options":{"showLabel": 0}}},
{"type": "Feature","geometry":{"coordinates": [-0.067011,51.599666],"type":"Point"},"properties":{"Address":"N170AU","name":"Nicola","hfrecnum":"4486","Event":"Broadwater Farm","fldsize":"6.3","fldtype":"fixed","id":"4486","_umap_options":{"showLabel": 0}}},
{"type": "Feature","geometry":{"coordinates": [-0.033093,51.595381],"type":"Point"},"properties":{"Address":"E175RW","name":"Aine","hfrecnum":"4485","Event":"Broadwater Farm","fldsize":"6.3","fldtype":"diagnosed","id":"4485","_umap_options":{"showLabel": 0}}},
{"type": "Feature","geometry":{"coordinates": [-0.097737,51.593912],"type":"Point"},"properties":{"Address":"N226SA","name":"Chloe","hfrecnum":"4484","Event":"Broadwater Farm","fldsize":"6.3","fldtype":"diagnosed","id":"4484","_umap_options":{"showLabel": 0}}},
{"type": "Feature","geometry":{"coordinates": [-0.083266,51.595301],"type":"Point"},"properties":{"Address":"N176LS","name":"Nina","hfrecnum":"4483","Event":"Broadwater Farm","fldsize":"6.3","fldtype":"Unable to fix","id":"4483","_umap_options":{"showLabel": 0}}},
{"type": "Feature","geometry":{"coordinates": [-0.10293,51.579731],"type":"Point"},"properties":{"Address":"N41BG","name":"Martin","hfrecnum":"4482","Event":"Broadwater Farm","fldsize":"6.3","fldtype":"fixed","id":"4482","_umap_options":{"showLabel": 0}}},
{"type": "Feature","geometry":{"coordinates": [-0.054107,51.55772],"type":"Point"},"properties":{"Address":"E50QQ","name":"Freya","hfrecnum":"4481","Event":"Broadwater Farm","fldsize":"6.3","fldtype":"fixed","id":"4481","_umap_options":{"showLabel": 0}}},
{"type": "Feature","geometry":{"coordinates": [-0.054107,51.55772],"type":"Point"},"properties":{"Address":"E50QQ","name":"Freya","hfrecnum":"4480","Event":"Broadwater Farm","fldsize":"6.3","fldtype":"fixed","id":"4480","_umap_options":{"showLabel": 0}}},
{"type": "Feature","geometry":{"coordinates": [-0.075048,51.620651],"type":"Point"},"properties":{"Address":"N99BL","name":"Asim","hfrecnum":"4478","Event":"Broadwater Farm","fldsize":"6.3","fldtype":"diagnosed","id":"4478","_umap_options":{"showLabel": 0}}},
{"type": "Feature","geometry":{"coordinates": [-0.23529,51.532295],"type":"Point"},"properties":{"Address":"NW105NH","name":"Maria","hfrecnum":"4477","Event":"Broadwater Farm","fldsize":"6.3","fldtype":"diagnosed","id":"4477","_umap_options":{"showLabel": 0}}},
{"type": "Feature","geometry":{"coordinates": [-0.080005,51.590806],"type":"Point"},"properties":{"Address":"N176EE","name":"Saskia","hfrecnum":"4476","Event":"Broadwater Farm","fldsize":"6.3","fldtype":"Self-repair","id":"4476","_umap_options":{"showLabel": 0}}},
{"type": "Feature","geometry":{"coordinates": [-0.080005,51.590806],"type":"Point"},"properties":{"Address":"N176EE","name":"Saskia","hfrecnum":"4475","Event":"Broadwater Farm","fldsize":"6.3","fldtype":"diagnosed","id":"4475","_umap_options":{"showLabel": 0}}},
{"type": "Feature","geometry":{"coordinates": [-0.089905,51.601218],"type":"Point"},"properties":{"Address":"N177EG","name":"Friedrich","hfrecnum":"4473","Event":"Broadwater Farm","fldsize":"6.3","fldtype":"fixed","id":"4473","_umap_options":{"showLabel": 0}}},
{"type": "Feature","geometry":{"coordinates": [-0.158661,51.644221],"type":"Point"},"properties":{"Address":"EN48HY","name":"Stephen","hfrecnum":"4472","Event":"Broadwater Farm","fldsize":"6.3","fldtype":"diagnosed","id":"4472","_umap_options":{"showLabel": 0}}},
{"type": "Feature","geometry":{"coordinates": [-0.158661,51.644221],"type":"Point"},"properties":{"Address":"EN48HY","name":"Hristina","hfrecnum":"4471","Event":"Broadwater Farm","fldsize":"6.3","fldtype":"Unable to fix","id":"4471","_umap_options":{"showLabel": 0}}},
{"type": "Feature","geometry":{"coordinates": [-0.129385,51.546362],"type":"Point"},"properties":{"Address":"NW19BT","name":"Lucy","hfrecnum":"4470","Event":"Broadwater Farm","fldsize":"6.3","fldtype":"Unable to fix","id":"4470","_umap_options":{"showLabel": 0}}},
{"type": "Feature","geometry":{"coordinates": [-0.098303,51.591337],"type":"Point"},"properties":{"Address":"N226AA","name":"Kerry-Ann","hfrecnum":"4467","Event":"All Good Bookshop","fldsize":"6.3","fldtype":"fixed","id":"4467","_umap_options":{"showLabel": 0}}},
{"type": "Feature","geometry":{"coordinates": [-0.086296,51.550343],"type":"Point"},"properties":{"Address":"N14RD","name":"Jasmine","hfrecnum":"4466","Event":"All Good Bookshop","fldsize":"6.3","fldtype":"diagnosed","id":"4466","_umap_options":{"showLabel": 0}}},
{"type": "Feature","geometry":{"coordinates": [-0.11879,51.604683],"type":"Point"},"properties":{"Address":"N228PL","name":"Sana","hfrecnum":"4464","Event":"All Good Bookshop","fldsize":"6.3","fldtype":"diagnosed","id":"4464","_umap_options":{"showLabel": 0}}},
{"type": "Feature","geometry":{"coordinates": [-0.102627,51.578692],"type":"Point"},"properties":{"Address":"N41RP","name":"Maren","hfrecnum":"4462","Event":"All Good Bookshop","fldsize":"6.3","fldtype":"fixed","id":"4462","_umap_options":{"showLabel": 0}}},
{"type": "Feature","geometry":{"coordinates": [-0.116346,51.608156],"type":"Point"},"properties":{"Address":"N228NN","name":"rachel","hfrecnum":"4461","Event":"All Good Bookshop","fldsize":"6.3","fldtype":"fixed","id":"4461","_umap_options":{"showLabel": 0}}},
{"type": "Feature","geometry":{"coordinates": [-0.097996,51.594276],"type":"Point"},"properties":{"Address":"N226SD","name":"Bob","hfrecnum":"4460","Event":"All Good Bookshop","fldsize":"6.3","fldtype":"fixed","id":"4460","_umap_options":{"showLabel": 0}}},
{"type": "Feature","geometry":{"coordinates": [-0.125247,51.556844],"type":"Point"},"properties":{"Address":"N70NB","name":"Danielle","hfrecnum":"4459","Event":"All Good Bookshop","fldsize":"6.3","fldtype":"diagnosed","id":"4459","_umap_options":{"showLabel": 0}}},
{"type": "Feature","geometry":{"coordinates": [-0.116346,51.608156],"type":"Point"},"properties":{"Address":"N228NN","name":"Phil","hfrecnum":"4458","Event":"All Good Bookshop","fldsize":"6.3","fldtype":"Unable to fix","id":"4458","_umap_options":{"showLabel": 0}}},
{"type": "Feature","geometry":{"coordinates": [-0.079971,51.574502],"type":"Point"},"properties":{"Address":"N165DL","name":"mahandra","hfrecnum":"4457","Event":"All Good Bookshop","fldsize":"6.3","fldtype":"fixed","id":"4457","_umap_options":{"showLabel": 0}}},
{"type": "Feature","geometry":{"coordinates": [-0.084505,51.595717],"type":"Point"},"properties":{"Address":"N176HG","name":"Internal","hfrecnum":"4456","Event":"All Good Bookshop","fldsize":"6.3","fldtype":"interim retry","id":"4456","_umap_options":{"showLabel": 0}}},
{"type": "Feature","geometry":{"coordinates": [-0.084505,51.595717],"type":"Point"},"properties":{"Address":"N176HG","name":"Internal","hfrecnum":"4455","Event":"All Good Bookshop","fldsize":"6.3","fldtype":"Beyond Repair","id":"4455","_umap_options":{"showLabel": 0}}},
{"type": "Feature","geometry":{"coordinates": [-0.084505,51.595717],"type":"Point"},"properties":{"Address":"N176HG","name":"Tony","hfrecnum":"4453","Event":"All Good Bookshop","fldsize":"6.3","fldtype":"NOT FAULTY","id":"4453","_umap_options":{"showLabel": 0}}},
{"type": "Feature","geometry":{"coordinates": [0.011295,51.542128],"type":"Point"},"properties":{"Address":"E154QP","name":"Christian","hfrecnum":"4452","Event":"All Good Bookshop","fldsize":"6.3","fldtype":"observer1","id":"4452","_umap_options":{"showLabel": 0}}},
{"type": "Feature","geometry":{"coordinates": [-0.103554,51.581036],"type":"Point"},"properties":{"Address":"N41AT","name":"Henry","hfrecnum":"4446","Event":"Lordship Hub","fldsize":"6.3","fldtype":"diagnosed","id":"4446","_umap_options":{"showLabel": 0}}},
{"type": "Feature","geometry":{"coordinates": [-0.06701,51.601743],"type":"Point"},"properties":{"Address":"N170AW","name":"Angella","hfrecnum":"4444","Event":"Lordship Hub","fldsize":"6.3","fldtype":"Unable to fix","id":"4444","_umap_options":{"showLabel": 0}}},
{"type": "Feature","geometry":{"coordinates": [-0.087004,51.592251],"type":"Point"},"properties":{"Address":"N176NU","name":"Nuru","hfrecnum":"4443","Event":"Lordship Hub","fldsize":"6.3","fldtype":"diagnosed","id":"4443","_umap_options":{"showLabel": 0}}},
{"type": "Feature","geometry":{"coordinates": [-0.087004,51.592251],"type":"Point"},"properties":{"Address":"N176NU","name":"Myra","hfrecnum":"4441","Event":"Lordship Hub","fldsize":"6.3","fldtype":"attended1","id":"4441","_umap_options":{"showLabel": 0}}},
{"type": "Feature","geometry":{"coordinates": [-0.087004,51.592251],"type":"Point"},"properties":{"Address":"N176NU","name":"Carola","hfrecnum":"4440","Event":"Lordship Hub","fldsize":"6.3","fldtype":"Unable to fix","id":"4440","_umap_options":{"showLabel": 0}}},
{"type": "Feature","geometry":{"coordinates": [-0.087004,51.592251],"type":"Point"},"properties":{"Address":"N176NU","name":"Carola","hfrecnum":"4439","Event":"Lordship Hub","fldsize":"6.3","fldtype":"fixed","id":"4439","_umap_options":{"showLabel": 0}}},
{"type": "Feature","geometry":{"coordinates": [-0.173253,51.641491],"type":"Point"},"properties":{"Address":"EN51DE","name":"roxana","hfrecnum":"4437","Event":"Lordship Hub","fldsize":"6.3","fldtype":"fixed","id":"4437","_umap_options":{"showLabel": 0}}},
{"type": "Feature","geometry":{"coordinates": [-0.173253,51.641491],"type":"Point"},"properties":{"Address":"EN51DE","name":"roxana","hfrecnum":"4436","Event":"Lordship Hub","fldsize":"6.3","fldtype":"fixed","id":"4436","_umap_options":{"showLabel": 0}}},
{"type": "Feature","geometry":{"coordinates": [-0.173253,51.641491],"type":"Point"},"properties":{"Address":"EN51DE","name":"roxana","hfrecnum":"4435","Event":"Lordship Hub","fldsize":"6.3","fldtype":"diagnosed","id":"4435","_umap_options":{"showLabel": 0}}},
{"type": "Feature","geometry":{"coordinates": [-0.094647,51.602114],"type":"Point"},"properties":{"Address":"N225EH","name":"Shantanu","hfrecnum":"4434","Event":"Lordship Hub","fldsize":"6.3","fldtype":"fixed","id":"4434","_umap_options":{"showLabel": 0}}},
{"type": "Feature","geometry":{"coordinates": [-0.05903,51.590092],"type":"Point"},"properties":{"Address":"N179FQ","name":"Aurea","hfrecnum":"4433","Event":"Lordship Hub","fldsize":"6.3","fldtype":"fixed","id":"4433","_umap_options":{"showLabel": 0}}},
{"type": "Feature","geometry":{"coordinates": [-0.083266,51.595301],"type":"Point"},"properties":{"Address":"N176LS","name":"Nina","hfrecnum":"4431","Event":"Lordship Hub","fldsize":"6.3","fldtype":"attended1","id":"4431","_umap_options":{"showLabel": 0}}},
{"type": "Feature","geometry":{"coordinates": [-0.063016,51.578863],"type":"Point"},"properties":{"Address":"N156BZ","name":"Steven","hfrecnum":"4430","Event":"Lordship Hub","fldsize":"6.3","fldtype":"Unable to fix","id":"4430","_umap_options":{"showLabel": 0}}},
{"type": "Feature","geometry":{"coordinates": [-0.078018,51.595577],"type":"Point"},"properties":{"Address":"N176HH","name":"Patrick","hfrecnum":"4429","Event":"Lordship Hub","fldsize":"6.3","fldtype":"Unable to fix","id":"4429","_umap_options":{"showLabel": 0}}},
{"type": "Feature","geometry":{"coordinates": [-0.096359,51.580856],"type":"Point"},"properties":{"Address":"N41LE","name":"Lizzy","hfrecnum":"4428","Event":"Lordship Hub","fldsize":"6.3","fldtype":"partial fix","id":"4428","_umap_options":{"showLabel": 0}}},
{"type": "Feature","geometry":{"coordinates": [-0.189832,51.605233],"type":"Point"},"properties":{"Address":"N31LH","name":"Neelesh","hfrecnum":"4427","Event":"Lordship Hub","fldsize":"6.3","fldtype":"Self-repair","id":"4427","_umap_options":{"showLabel": 0}}},
{"type": "Feature","geometry":{"coordinates": [-0.086643,51.58881],"type":"Point"},"properties":{"Address":"N176PN","name":"Kate","hfrecnum":"4425","Event":"Lordship Hub","fldsize":"6.3","fldtype":"diagnosed","id":"4425","_umap_options":{"showLabel": 0}}},
{"type": "Feature","geometry":{"coordinates": [-0.087004,51.592251],"type":"Point"},"properties":{"Address":"N176NU","name":"Isha Turay","hfrecnum":"4424","Event":"Lordship Hub","fldsize":"6.3","fldtype":"fixed","id":"4424","_umap_options":{"showLabel": 0}}},
{"type": "Feature","geometry":{"coordinates": [-0.144241,51.597369],"type":"Point"},"properties":{"Address":"N102EH","name":"David","hfrecnum":"4420","Event":"Broadwater Farm","fldsize":"6.3","fldtype":"fixed","id":"4420","_umap_options":{"showLabel": 0}}},
{"type": "Feature","geometry":{"coordinates": [-0.0825,51.594641],"type":"Point"},"properties":{"Address":"N176LP","name":"Glasmie","hfrecnum":"4417","Event":"Broadwater Farm","fldsize":"6.3","fldtype":"fixed","id":"4417","_umap_options":{"showLabel": 0}}},
{"type": "Feature","geometry":{"coordinates": [-0.084505,51.595717],"type":"Point"},"properties":{"Address":"N176HG","name":"Glasmie","hfrecnum":"4416","Event":"Broadwater Farm","fldsize":"6.3","fldtype":"fixed","id":"4416","_umap_options":{"showLabel": 0}}},
{"type": "Feature","geometry":{"coordinates": [-0.099261,51.554214],"type":"Point"},"properties":{"Address":"N51SH","name":"Quentin","hfrecnum":"4415","Event":"Broadwater Farm","fldsize":"6.3","fldtype":"diagnosed","id":"4415","_umap_options":{"showLabel": 0}}},
{"type": "Feature","geometry":{"coordinates": [-0.074052,51.526744],"type":"Point"},"properties":{"Address":"E27LE","name":"Barbara","hfrecnum":"4414","Event":"Broadwater Farm","fldsize":"6.3","fldtype":"diagnosed","id":"4414","_umap_options":{"showLabel": 0}}},
{"type": "Feature","geometry":{"coordinates": [-0.124363,51.568178],"type":"Point"},"properties":{"Address":"N193HS","name":"Hannah","hfrecnum":"4413","Event":"Broadwater Farm","fldsize":"6.3","fldtype":"fixed","id":"4413","_umap_options":{"showLabel": 0}}},
{"type": "Feature","geometry":{"coordinates": [-0.063764,51.593524],"type":"Point"},"properties":{"Address":"N179BG","name":"Rebecca","hfrecnum":"4411","Event":"Broadwater Farm","fldsize":"6.3","fldtype":"fixed","id":"4411","_umap_options":{"showLabel": 0}}},
{"type": "Feature","geometry":{"coordinates": [-0.095936,51.602728],"type":"Point"},"properties":{"Address":"N225EG","name":"Marcus","hfrecnum":"4409","Event":"Broadwater Farm","fldsize":"6.3","fldtype":"Unable to fix","id":"4409","_umap_options":{"showLabel": 0}}},
{"type": "Feature","geometry":{"coordinates": [-0.084505,51.595717],"type":"Point"},"properties":{"Address":"N176HG","name":"Ben","hfrecnum":"4406","Event":"Broadwater Farm","fldsize":"6.3","fldtype":"fixed","id":"4406","_umap_options":{"showLabel": 0}}},
{"type": "Feature","geometry":{"coordinates": [-0.084505,51.595717],"type":"Point"},"properties":{"Address":"N176HG","name":"","hfrecnum":"4405","Event":"Broadwater Farm","fldsize":"6.3","fldtype":"fixed","id":"4405","_umap_options":{"showLabel": 0}}},
{"type": "Feature","geometry":{"coordinates": [-0.105364,51.589665],"type":"Point"},"properties":{"Address":"N80EP","name":"Hannah","hfrecnum":"4398","Event":"All Good Bookshop","fldsize":"6.3","fldtype":"fixed","id":"4398","_umap_options":{"showLabel": 0}}},
{"type": "Feature","geometry":{"coordinates": [-0.108057,51.59085],"type":"Point"},"properties":{"Address":"N80PP","name":"Mary","hfrecnum":"4397","Event":"All Good Bookshop","fldsize":"6.3","fldtype":"Unable to fix","id":"4397","_umap_options":{"showLabel": 0}}},
{"type": "Feature","geometry":{"coordinates": [-0.108057,51.59085],"type":"Point"},"properties":{"Address":"N80PP","name":"Mary","hfrecnum":"4396","Event":"All Good Bookshop","fldsize":"6.3","fldtype":"fixed","id":"4396","_umap_options":{"showLabel": 0}}},
{"type": "Feature","geometry":{"coordinates": [-0.124471,51.591489],"type":"Point"},"properties":{"Address":"N87LL","name":"Joan","hfrecnum":"4395","Event":"All Good Bookshop","fldsize":"6.3","fldtype":"fixed","id":"4395","_umap_options":{"showLabel": 0}}},
{"type": "Feature","geometry":{"coordinates": [-0.130732,51.581409],"type":"Point"},"properties":{"Address":"N88RJ","name":"Fran","hfrecnum":"4394","Event":"All Good Bookshop","fldsize":"6.3","fldtype":"diagnosed","id":"4394","_umap_options":{"showLabel": 0}}},
{"type": "Feature","geometry":{"coordinates": [-0.086296,51.550343],"type":"Point"},"properties":{"Address":"N14RD","name":"Jasmine","hfrecnum":"4393","Event":"All Good Bookshop","fldsize":"6.3","fldtype":"fixed","id":"4393","_umap_options":{"showLabel": 0}}},
{"type": "Feature","geometry":{"coordinates": [-0.096897,51.592594],"type":"Point"},"properties":{"Address":"N226AS","name":"Subi","hfrecnum":"4392","Event":"All Good Bookshop","fldsize":"6.3","fldtype":"fixed","id":"4392","_umap_options":{"showLabel": 0}}},
{"type": "Feature","geometry":{"coordinates": [-0.097329,51.597023],"type":"Point"},"properties":{"Address":"N226JN","name":"Chrystine","hfrecnum":"4391","Event":"All Good Bookshop","fldsize":"6.3","fldtype":"diagnosed","id":"4391","_umap_options":{"showLabel": 0}}},
{"type": "Feature","geometry":{"coordinates": [-0.118635,51.600657],"type":"Point"},"properties":{"Address":"N227DA","name":"Bolu","hfrecnum":"4389","Event":"All Good Bookshop","fldsize":"6.3","fldtype":"diagnosed","id":"4389","_umap_options":{"showLabel": 0}}},
{"type": "Feature","geometry":{"coordinates": [-0.104197,51.583693],"type":"Point"},"properties":{"Address":"N80AJ","name":"Fiona","hfrecnum":"4387","Event":"All Good Bookshop","fldsize":"6.3","fldtype":"fixed","id":"4387","_umap_options":{"showLabel": 0}}},
{"type": "Feature","geometry":{"coordinates": [-0.104197,51.583693],"type":"Point"},"properties":{"Address":"N80AJ","name":"Fiona","hfrecnum":"4386","Event":"All Good Bookshop","fldsize":"6.3","fldtype":"fixed","id":"4386","_umap_options":{"showLabel": 0}}},
{"type": "Feature","geometry":{"coordinates": [-0.117976,51.578516],"type":"Point"},"properties":{"Address":"N89HR","name":"Erica","hfrecnum":"4385","Event":"All Good Bookshop","fldsize":"6.3","fldtype":"fixed","id":"4385","_umap_options":{"showLabel": 0}}},
{"type": "Feature","geometry":{"coordinates": [-0.114899,51.58906],"type":"Point"},"properties":{"Address":"N87QE","name":"Kathryn","hfrecnum":"4382","Event":"All Good Bookshop","fldsize":"6.3","fldtype":"diagnosed","id":"4382","_umap_options":{"showLabel": 0}}},
{"type": "Feature","geometry":{"coordinates": [-0.104419,51.583921],"type":"Point"},"properties":{"Address":"N80AL","name":"Steve","hfrecnum":"4378","Event":"All Good Bookshop","fldsize":"6.3","fldtype":"Self-repair","id":"4378","_umap_options":{"showLabel": 0}}},
{"type": "Feature","geometry":{"coordinates": [-0.083149,51.600137],"type":"Point"},"properties":{"Address":"N177DD","name":"Amelia","hfrecnum":"4371","Event":"Lordship Hub","fldsize":"6.3","fldtype":"fixed","id":"4371","_umap_options":{"showLabel": 0}}},
{"type": "Feature","geometry":{"coordinates": [-0.097329,51.597023],"type":"Point"},"properties":{"Address":"N226JN","name":"Chrystine","hfrecnum":"4370","Event":"Lordship Hub","fldsize":"6.3","fldtype":"diagnosed","id":"4370","_umap_options":{"showLabel": 0}}},
{"type": "Feature","geometry":{"coordinates": [-0.059008,51.595703],"type":"Point"},"properties":{"Address":"N179RJ","name":"Jana","hfrecnum":"4369","Event":"Lordship Hub","fldsize":"6.3","fldtype":"diagnosed","id":"4369","_umap_options":{"showLabel": 0}}},
{"type": "Feature","geometry":{"coordinates": [-0.097329,51.597023],"type":"Point"},"properties":{"Address":"N226JN","name":"Chrystine","hfrecnum":"4368","Event":"Lordship Hub","fldsize":"6.3","fldtype":"diagnosed","id":"4368","_umap_options":{"showLabel": 0}}},
{"type": "Feature","geometry":{"coordinates": [-0.086167,51.58882],"type":"Point"},"properties":{"Address":"N176PP","name":"Leonie","hfrecnum":"4367","Event":"Lordship Hub","fldsize":"6.3","fldtype":"Unable to fix","id":"4367","_umap_options":{"showLabel": 0}}},
{"type": "Feature","geometry":{"coordinates": [-0.154082,51.57864],"type":"Point"},"properties":{"Address":"N64DP","name":"Rona","hfrecnum":"4366","Event":"Lordship Hub","fldsize":"6.3","fldtype":"fixed","id":"4366","_umap_options":{"showLabel": 0}}},
{"type": "Feature","geometry":{"coordinates": [-0.130732,51.581409],"type":"Point"},"properties":{"Address":"N88RJ","name":"Fran","hfrecnum":"4365","Event":"Lordship Hub","fldsize":"6.3","fldtype":"fixed","id":"4365","_umap_options":{"showLabel": 0}}},
{"type": "Feature","geometry":{"coordinates": [-0.059008,51.595703],"type":"Point"},"properties":{"Address":"N179RJ","name":"Jana","hfrecnum":"4364","Event":"Lordship Hub","fldsize":"6.3","fldtype":"fixed","id":"4364","_umap_options":{"showLabel": 0}}},
{"type": "Feature","geometry":{"coordinates": [-0.059008,51.595703],"type":"Point"},"properties":{"Address":"N179RJ","name":"Jana","hfrecnum":"4362","Event":"Lordship Hub","fldsize":"6.3","fldtype":"diagnosed","id":"4362","_umap_options":{"showLabel": 0}}},
{"type": "Feature","geometry":{"coordinates": [-0.078593,51.594589],"type":"Point"},"properties":{"Address":"N176JH","name":"Leila","hfrecnum":"4361","Event":"Lordship Hub","fldsize":"6.3","fldtype":"fixed","id":"4361","_umap_options":{"showLabel": 0}}},
{"type": "Feature","geometry":{"coordinates": [-0.080813,51.590237],"type":"Point"},"properties":{"Address":"N176DX","name":"Imran","hfrecnum":"4354","Event":"Willow School","fldsize":"6.3","fldtype":"fixed","id":"4354","_umap_options":{"showLabel": 0}}},
{"type": "Feature","geometry":{"coordinates": [-0.080813,51.590237],"type":"Point"},"properties":{"Address":"N176DX","name":"Imran","hfrecnum":"4353","Event":"Willow School","fldsize":"6.3","fldtype":"partial fix","id":"4353","_umap_options":{"showLabel": 0}}},
{"type": "Feature","geometry":{"coordinates": [-0.082169,51.596068],"type":"Point"},"properties":{"Address":"N176HW","name":"gladys","hfrecnum":"4352","Event":"Willow School","fldsize":"6.3","fldtype":"fixed","id":"4352","_umap_options":{"showLabel": 0}}},
{"type": "Feature","geometry":{"coordinates": [-0.082169,51.596068],"type":"Point"},"properties":{"Address":"N176HW","name":"gladys","hfrecnum":"4351","Event":"Willow School","fldsize":"6.3","fldtype":"fixed","id":"4351","_umap_options":{"showLabel": 0}}},
{"type": "Feature","geometry":{"coordinates": [-0.082169,51.596068],"type":"Point"},"properties":{"Address":"N176HW","name":"gladys","hfrecnum":"4350","Event":"Willow School","fldsize":"6.3","fldtype":"fixed","id":"4350","_umap_options":{"showLabel": 0}}},
{"type": "Feature","geometry":{"coordinates": [-0.061669,51.596277],"type":"Point"},"properties":{"Address":"N179RT","name":"Jonathan","hfrecnum":"4347","Event":"Broadwater Farm","fldsize":"6.3","fldtype":"fixed","id":"4347","_umap_options":{"showLabel": 0}}},
{"type": "Feature","geometry":{"coordinates": [-0.09641,51.588009],"type":"Point"},"properties":{"Address":"N153PS","name":"Stephanie","hfrecnum":"4346","Event":"Broadwater Farm","fldsize":"6.3","fldtype":"fixed","id":"4346","_umap_options":{"showLabel": 0}}},
{"type": "Feature","geometry":{"coordinates": [-0.155791,51.598819],"type":"Point"},"properties":{"Address":"N101JB","name":"Chris","hfrecnum":"4345","Event":"Broadwater Farm","fldsize":"6.3","fldtype":"fixed","id":"4345","_umap_options":{"showLabel": 0}}},
{"type": "Feature","geometry":{"coordinates": [-0.081517,51.595362],"type":"Point"},"properties":{"Address":"N176HU","name":"Ganna","hfrecnum":"4344","Event":"Broadwater Farm","fldsize":"6.3","fldtype":"partial fix","id":"4344","_umap_options":{"showLabel": 0}}},
{"type": "Feature","geometry":{"coordinates": [-0.074052,51.526744],"type":"Point"},"properties":{"Address":"E27LE","name":"Barbara","hfrecnum":"4343","Event":"Broadwater Farm","fldsize":"6.3","fldtype":"Unable to fix","id":"4343","_umap_options":{"showLabel": 0}}},
{"type": "Feature","geometry":{"coordinates": [-0.097329,51.597023],"type":"Point"},"properties":{"Address":"N226JN","name":"Chrystine","hfrecnum":"4342","Event":"Broadwater Farm","fldsize":"6.3","fldtype":"fixed","id":"4342","_umap_options":{"showLabel": 0}}},
{"type": "Feature","geometry":{"coordinates": [-0.084505,51.595717],"type":"Point"},"properties":{"Address":"N176HG","name":"internal","hfrecnum":"4341","Event":"Broadwater Farm","fldsize":"6.3","fldtype":"","id":"4341","_umap_options":{"showLabel": 0}}},
{"type": "Feature","geometry":{"coordinates": [-0.084505,51.595717],"type":"Point"},"properties":{"Address":"N176HG","name":"Fusion BWF","hfrecnum":"4340","Event":"Broadwater Farm","fldsize":"6.3","fldtype":"fixed","id":"4340","_umap_options":{"showLabel": 0}}},
{"type": "Feature","geometry":{"coordinates": [-0.084505,51.595717],"type":"Point"},"properties":{"Address":"N176HG","name":"Alexia","hfrecnum":"4339","Event":"Broadwater Farm","fldsize":"6.3","fldtype":"Unable to fix","id":"4339","_umap_options":{"showLabel": 0}}},
{"type": "Feature","geometry":{"coordinates": [-0.074052,51.526744],"type":"Point"},"properties":{"Address":"E27LE","name":"barbara","hfrecnum":"4334","Event":"All Good Bookshop","fldsize":"6.3","fldtype":"fixed","id":"4334","_umap_options":{"showLabel": 0}}},
{"type": "Feature","geometry":{"coordinates": [-0.097329,51.597023],"type":"Point"},"properties":{"Address":"N226JN","name":"Hana","hfrecnum":"4329","Event":"All Good Bookshop","fldsize":"6.3","fldtype":"Self-repair","id":"4329","_umap_options":{"showLabel": 0}}},
{"type": "Feature","geometry":{"coordinates": [-0.097329,51.597023],"type":"Point"},"properties":{"Address":"N226JN","name":"Hana","hfrecnum":"4328","Event":"All Good Bookshop","fldsize":"6.3","fldtype":"diagnosed","id":"4328","_umap_options":{"showLabel": 0}}},
{"type": "Feature","geometry":{"coordinates": [-0.121459,51.586192],"type":"Point"},"properties":{"Address":"N87PG","name":"Richard","hfrecnum":"4327","Event":"All Good Bookshop","fldsize":"6.3","fldtype":"diagnosed","id":"4327","_umap_options":{"showLabel": 0}}},
{"type": "Feature","geometry":{"coordinates": [-0.086643,51.58881],"type":"Point"},"properties":{"Address":"N176PN","name":"Kate","hfrecnum":"4325","Event":"All Good Bookshop","fldsize":"6.3","fldtype":"fixed","id":"4325","_umap_options":{"showLabel": 0}}},
{"type": "Feature","geometry":{"coordinates": [-0.140276,51.584226],"type":"Point"},"properties":{"Address":"N103LB","name":"Vivien","hfrecnum":"4324","Event":"All Good Bookshop","fldsize":"6.3","fldtype":"fixed","id":"4324","_umap_options":{"showLabel": 0}}},
{"type": "Feature","geometry":{"coordinates": [-0.116346,51.608156],"type":"Point"},"properties":{"Address":"N228NN","name":"rachel","hfrecnum":"4323","Event":"All Good Bookshop","fldsize":"6.3","fldtype":"Unable to fix","id":"4323","_umap_options":{"showLabel": 0}}},
{"type": "Feature","geometry":{"coordinates": [-0.088578,51.59912],"type":"Point"},"properties":{"Address":"N177PR","name":"Valeria","hfrecnum":"4322","Event":"All Good Bookshop","fldsize":"6.3","fldtype":"fixed","id":"4322","_umap_options":{"showLabel": 0}}},
{"type": "Feature","geometry":{"coordinates": [-0.096928,51.591081],"type":"Point"},"properties":{"Address":"N226AB","name":"Max","hfrecnum":"4321","Event":"All Good Bookshop","fldsize":"6.3","fldtype":"fixed","id":"4321","_umap_options":{"showLabel": 0}}},
{"type": "Feature","geometry":{"coordinates": [-0.105364,51.589665],"type":"Point"},"properties":{"Address":"N80EP","name":"Hayley","hfrecnum":"4320","Event":"All Good Bookshop","fldsize":"6.3","fldtype":"diagnosed","id":"4320","_umap_options":{"showLabel": 0}}},
{"type": "Feature","geometry":{"coordinates": [-0.105364,51.589665],"type":"Point"},"properties":{"Address":"N80EP","name":"Hayley","hfrecnum":"4319","Event":"All Good Bookshop","fldsize":"6.3","fldtype":"diagnosed","id":"4319","_umap_options":{"showLabel": 0}}},
{"type": "Feature","geometry":{"coordinates": [-0.105364,51.589665],"type":"Point"},"properties":{"Address":"N80EP","name":"Chris","hfrecnum":"4318","Event":"All Good Bookshop","fldsize":"6.3","fldtype":"fixed","id":"4318","_umap_options":{"showLabel": 0}}},
{"type": "Feature","geometry":{"coordinates": [-0.105364,51.589665],"type":"Point"},"properties":{"Address":"N80EP","name":"Svetlana","hfrecnum":"4317","Event":"All Good Bookshop","fldsize":"6.3","fldtype":"diagnosed","id":"4317","_umap_options":{"showLabel": 0}}},
{"type": "Feature","geometry":{"coordinates": [-0.084505,51.595717],"type":"Point"},"properties":{"Address":"N176HG","name":"Augustine","hfrecnum":"4312","Event":"Lordship Hub","fldsize":"6.3","fldtype":"Beyond Repair","id":"4312","_umap_options":{"showLabel": 0}}},
{"type": "Feature","geometry":{"coordinates": [-0.084505,51.595717],"type":"Point"},"properties":{"Address":"N176HG","name":"Rose","hfrecnum":"4311","Event":"Lordship Hub","fldsize":"6.3","fldtype":"diagnosed","id":"4311","_umap_options":{"showLabel": 0}}},
{"type": "Feature","geometry":{"coordinates": [-0.087004,51.592251],"type":"Point"},"properties":{"Address":"N176NU","name":"Joao","hfrecnum":"4310","Event":"Lordship Hub","fldsize":"6.3","fldtype":"fixed","id":"4310","_umap_options":{"showLabel": 0}}},
{"type": "Feature","geometry":{"coordinates": [-0.074142,51.592553],"type":"Point"},"properties":{"Address":"N176YJ","name":"Coral","hfrecnum":"4309","Event":"Lordship Hub","fldsize":"6.3","fldtype":"partial fix","id":"4309","_umap_options":{"showLabel": 0}}},
{"type": "Feature","geometry":{"coordinates": [-0.08594,51.591118],"type":"Point"},"properties":{"Address":"N176LJ","name":"Chris","hfrecnum":"4308","Event":"Lordship Hub","fldsize":"6.3","fldtype":"fixed","id":"4308","_umap_options":{"showLabel": 0}}},
{"type": "Feature","geometry":{"coordinates": [-0.0895,51.57784],"type":"Point"},"properties":{"Address":"N41PD","name":"SUE","hfrecnum":"4307","Event":"Lordship Hub","fldsize":"6.3","fldtype":"Unable to fix","id":"4307","_umap_options":{"showLabel": 0}}},
{"type": "Feature","geometry":{"coordinates": [-0.097329,51.597023],"type":"Point"},"properties":{"Address":"N226JN","name":"Chrystine","hfrecnum":"4306","Event":"Lordship Hub","fldsize":"6.3","fldtype":"partial fix","id":"4306","_umap_options":{"showLabel": 0}}},
{"type": "Feature","geometry":{"coordinates": [-0.089502,51.617713],"type":"Point"},"properties":{"Address":"N135EA","name":"Lorraine","hfrecnum":"4305","Event":"Lordship Hub","fldsize":"6.3","fldtype":"fixed","id":"4305","_umap_options":{"showLabel": 0}}},
{"type": "Feature","geometry":{"coordinates": [-0.0895,51.57784],"type":"Point"},"properties":{"Address":"N41PD","name":"SUE","hfrecnum":"4304","Event":"Lordship Hub","fldsize":"6.3","fldtype":"Unable to fix","id":"4304","_umap_options":{"showLabel": 0}}},
{"type": "Feature","geometry":{"coordinates": [-0.110963,51.574387],"type":"Point"},"properties":{"Address":"N44QA","name":"Iris","hfrecnum":"4303","Event":"Lordship Hub","fldsize":"6.3","fldtype":"partial fix","id":"4303","_umap_options":{"showLabel": 0}}},
{"type": "Feature","geometry":{"coordinates": [-0.089502,51.617713],"type":"Point"},"properties":{"Address":"N135EA","name":"Lorraine","hfrecnum":"4302","Event":"Lordship Hub","fldsize":"6.3","fldtype":"fixed","id":"4302","_umap_options":{"showLabel": 0}}},
{"type": "Feature","geometry":{"coordinates": [-0.075461,51.595857],"type":"Point"},"properties":{"Address":"N176EP","name":"Penny","hfrecnum":"4301","Event":"Lordship Hub","fldsize":"6.3","fldtype":"Unable to fix","id":"4301","_umap_options":{"showLabel": 0}}},
{"type": "Feature","geometry":{"coordinates": [-0.182152,51.617821],"type":"Point"},"properties":{"Address":"N128RY","name":"Vitali","hfrecnum":"4300","Event":"Lordship Hub","fldsize":"6.3","fldtype":"Unable to fix","id":"4300","_umap_options":{"showLabel": 0}}},
{"type": "Feature","geometry":{"coordinates": [-0.148454,51.587232],"type":"Point"},"properties":{"Address":"N103JA","name":"Vikas","hfrecnum":"4298","Event":"Lordship Hub","fldsize":"6.3","fldtype":"Beyond Repair","id":"4298","_umap_options":{"showLabel": 0}}},
{"type": "Feature","geometry":{"coordinates": [-0.148454,51.587232],"type":"Point"},"properties":{"Address":"N103JA","name":"Priya","hfrecnum":"4297","Event":"Lordship Hub","fldsize":"6.3","fldtype":"fixed","id":"4297","_umap_options":{"showLabel": 0}}},
{"type": "Feature","geometry":{"coordinates": [-0.101884,51.595136],"type":"Point"},"properties":{"Address":"N226QH","name":"Emily","hfrecnum":"4296","Event":"Lordship Hub","fldsize":"6.3","fldtype":"fixed","id":"4296","_umap_options":{"showLabel": 0}}},
{"type": "Feature","geometry":{"coordinates": [-0.076607,51.600257],"type":"Point"},"properties":{"Address":"N177AA","name":"John","hfrecnum":"4295","Event":"Lordship Hub","fldsize":"6.3","fldtype":"we broke it","id":"4295","_umap_options":{"showLabel": 0}}},
{"type": "Feature","geometry":{"coordinates": [-0.185378,51.612628],"type":"Point"},"properties":{"Address":"N128ES","name":"Nicky","hfrecnum":"4290","Event":"Broadwater Farm","fldsize":"6.3","fldtype":"diagnosed","id":"4290","_umap_options":{"showLabel": 0}}},
{"type": "Feature","geometry":{"coordinates": [-0.185378,51.612628],"type":"Point"},"properties":{"Address":"N128ES","name":"Nicky","hfrecnum":"4289","Event":"Broadwater Farm","fldsize":"6.3","fldtype":"diagnosed","id":"4289","_umap_options":{"showLabel": 0}}},
{"type": "Feature","geometry":{"coordinates": [-0.185378,51.612628],"type":"Point"},"properties":{"Address":"N128ES","name":"Nicky","hfrecnum":"4288","Event":"Broadwater Farm","fldsize":"6.3","fldtype":"diagnosed","id":"4288","_umap_options":{"showLabel": 0}}},
{"type": "Feature","geometry":{"coordinates": [-0.074367,51.591666],"type":"Point"},"properties":{"Address":"N176XR","name":"Beryl","hfrecnum":"4287","Event":"Broadwater Farm","fldsize":"6.3","fldtype":"partial fix","id":"4287","_umap_options":{"showLabel": 0}}},
{"type": "Feature","geometry":{"coordinates": [-0.080362,51.59056],"type":"Point"},"properties":{"Address":"N176EB","name":"Paul","hfrecnum":"4286","Event":"Broadwater Farm","fldsize":"6.3","fldtype":"Unable to fix","id":"4286","_umap_options":{"showLabel": 0}}},
{"type": "Feature","geometry":{"coordinates": [-0.081517,51.595362],"type":"Point"},"properties":{"Address":"N176HU","name":"Ganna","hfrecnum":"4284","Event":"Broadwater Farm","fldsize":"6.3","fldtype":"shop repair","id":"4284","_umap_options":{"showLabel": 0}}},
{"type": "Feature","geometry":{"coordinates": [-0.182152,51.617821],"type":"Point"},"properties":{"Address":"N128RY","name":"Vitali","hfrecnum":"4282","Event":"Broadwater Farm","fldsize":"6.3","fldtype":"Unable to fix","id":"4282","_umap_options":{"showLabel": 0}}},
{"type": "Feature","geometry":{"coordinates": [-0.082918,51.575467],"type":"Point"},"properties":{"Address":"N156HA","name":"Sammie","hfrecnum":"4279","Event":"Broadwater Farm","fldsize":"6.3","fldtype":"partial fix","id":"4279","_umap_options":{"showLabel": 0}}},
{"type": "Feature","geometry":{"coordinates": [-0.084505,51.595717],"type":"Point"},"properties":{"Address":"N176HG","name":"Matthew","hfrecnum":"4278","Event":"Broadwater Farm","fldsize":"6.3","fldtype":"Unable to fix","id":"4278","_umap_options":{"showLabel": 0}}},
{"type": "Feature","geometry":{"coordinates": [-0.084505,51.595717],"type":"Point"},"properties":{"Address":"N176HG","name":"Joseph","hfrecnum":"4277","Event":"Broadwater Farm","fldsize":"6.3","fldtype":"fixed","id":"4277","_umap_options":{"showLabel": 0}}},
{"type": "Feature","geometry":{"coordinates": [-0.084505,51.595717],"type":"Point"},"properties":{"Address":"N176HG","name":"Alphanso","hfrecnum":"4276","Event":"Broadwater Farm","fldsize":"6.3","fldtype":"Unable to fix","id":"4276","_umap_options":{"showLabel": 0}}},
{"type": "Feature","geometry":{"coordinates": [-0.134679,51.588372],"type":"Point"},"properties":{"Address":"N103TE","name":"Esther","hfrecnum":"4273","Event":"All Good Bookshop","fldsize":"6.3","fldtype":"fixed","id":"4273","_umap_options":{"showLabel": 0}}},
{"type": "Feature","geometry":{"coordinates": [-0.099852,51.590904],"type":"Point"},"properties":{"Address":"N153NH","name":"Stephen","hfrecnum":"4271","Event":"All Good Bookshop","fldsize":"6.3","fldtype":"fixed","id":"4271","_umap_options":{"showLabel": 0}}},
{"type": "Feature","geometry":{"coordinates": [-0.117976,51.578516],"type":"Point"},"properties":{"Address":"N89HR","name":"Erica","hfrecnum":"4270","Event":"All Good Bookshop","fldsize":"6.3","fldtype":"fixed","id":"4270","_umap_options":{"showLabel": 0}}},
{"type": "Feature","geometry":{"coordinates": [-0.099852,51.590904],"type":"Point"},"properties":{"Address":"N153NH","name":"Stephen","hfrecnum":"4269","Event":"All Good Bookshop","fldsize":"6.3","fldtype":"diagnosed","id":"4269","_umap_options":{"showLabel": 0}}},
{"type": "Feature","geometry":{"coordinates": [-0.135632,51.538188],"type":"Point"},"properties":{"Address":"NW10SE","name":"Christine","hfrecnum":"4267","Event":"All Good Bookshop","fldsize":"6.3","fldtype":"fixed","id":"4267","_umap_options":{"showLabel": 0}}},
{"type": "Feature","geometry":{"coordinates": [-0.096023,51.585437],"type":"Point"},"properties":{"Address":"N153RF","name":"Maite","hfrecnum":"4266","Event":"All Good Bookshop","fldsize":"6.3","fldtype":"fixed","id":"4266","_umap_options":{"showLabel": 0}}},
{"type": "Feature","geometry":{"coordinates": [-0.070753,51.582588],"type":"Point"},"properties":{"Address":"N154NW","name":"pam","hfrecnum":"4265","Event":"All Good Bookshop","fldsize":"6.3","fldtype":"diagnosed","id":"4265","_umap_options":{"showLabel": 0}}},
{"type": "Feature","geometry":{"coordinates": [-0.096643,51.59238],"type":"Point"},"properties":{"Address":"N226AD","name":"David","hfrecnum":"4263","Event":"All Good Bookshop","fldsize":"6.3","fldtype":"fixed","id":"4263","_umap_options":{"showLabel": 0}}},
{"type": "Feature","geometry":{"coordinates": [-0.13146,51.627318],"type":"Point"},"properties":{"Address":"N146DX","name":"Chris","hfrecnum":"4262","Event":"All Good Bookshop","fldsize":"6.3","fldtype":"diagnosed","id":"4262","_umap_options":{"showLabel": 0}}},
{"type": "Feature","geometry":{"coordinates": [-0.128662,51.616321],"type":"Point"},"properties":{"Address":"N111AS","name":"Paula","hfrecnum":"4260","Event":"All Good Bookshop","fldsize":"6.3","fldtype":"diagnosed","id":"4260","_umap_options":{"showLabel": 0}}},
{"type": "Feature","geometry":{"coordinates": [-0.105364,51.589665],"type":"Point"},"properties":{"Address":"N80EP","name":"Adwoa","hfrecnum":"4258","Event":"All Good Bookshop","fldsize":"6.3","fldtype":"Beyond Repair","id":"4258","_umap_options":{"showLabel": 0}}},
{"type": "Feature","geometry":{"coordinates": [-0.162014,51.635366],"type":"Point"},"properties":{"Address":"EN48ED","name":"Maria","hfrecnum":"4257","Event":"All Good Bookshop","fldsize":"6.3","fldtype":"Unable to fix","id":"4257","_umap_options":{"showLabel": 0}}},
{"type": "Feature","geometry":{"coordinates": [-0.123613,51.598633],"type":"Point"},"properties":{"Address":"N227BW","name":"Cathy","hfrecnum":"4256","Event":"All Good Bookshop","fldsize":"6.3","fldtype":"Self-repair","id":"4256","_umap_options":{"showLabel": 0}}},
{"type": "Feature","geometry":{"coordinates": [-0.074642,51.601913],"type":"Point"},"properties":{"Address":"N178AS","name":"","hfrecnum":"4253","Event":"Antwerp Arms","fldsize":"6.3","fldtype":"fixed","id":"4253","_umap_options":{"showLabel": 0}}},
{"type": "Feature","geometry":{"coordinates": [-0.074642,51.601913],"type":"Point"},"properties":{"Address":"N178AS","name":"","hfrecnum":"4252","Event":"Antwerp Arms","fldsize":"6.3","fldtype":"diagnosed","id":"4252","_umap_options":{"showLabel": 0}}},
{"type": "Feature","geometry":{"coordinates": [-0.080831,51.592197],"type":"Point"},"properties":{"Address":"N176BZ","name":"Carnice","hfrecnum":"4249","Event":"Lordship Hub","fldsize":"6.3","fldtype":"volunteer1","id":"4249","_umap_options":{"showLabel": 0}}},
{"type": "Feature","geometry":{"coordinates": [-0.087004,51.592251],"type":"Point"},"properties":{"Address":"N176NU","name":"Nicole","hfrecnum":"4248","Event":"Lordship Hub","fldsize":"6.3","fldtype":"fixed","id":"4248","_umap_options":{"showLabel": 0}}},
{"type": "Feature","geometry":{"coordinates": [-0.093766,51.593853],"type":"Point"},"properties":{"Address":"N226AE","name":"Anthony","hfrecnum":"4247","Event":"Lordship Hub","fldsize":"6.3","fldtype":"fixed","id":"4247","_umap_options":{"showLabel": 0}}},
{"type": "Feature","geometry":{"coordinates": [-0.080526,51.589078],"type":"Point"},"properties":{"Address":"N154HH","name":"Christopher","hfrecnum":"4246","Event":"Lordship Hub","fldsize":"6.3","fldtype":"fixed","id":"4246","_umap_options":{"showLabel": 0}}},
{"type": "Feature","geometry":{"coordinates": [-0.063016,51.578863],"type":"Point"},"properties":{"Address":"N156BZ","name":"Steven","hfrecnum":"4245","Event":"Lordship Hub","fldsize":"6.3","fldtype":"fixed","id":"4245","_umap_options":{"showLabel": 0}}},
{"type": "Feature","geometry":{"coordinates": [-0.114131,51.599899],"type":"Point"},"properties":{"Address":"N22","name":"Sian","hfrecnum":"4244","Event":"Lordship Hub","fldsize":"6.3","fldtype":"diagnosed","id":"4244","_umap_options":{"showLabel": 0}}},
{"type": "Feature","geometry":{"coordinates": [-0.087004,51.592251],"type":"Point"},"properties":{"Address":"N176NU","name":"Abiy","hfrecnum":"4243","Event":"Lordship Hub","fldsize":"6.3","fldtype":"fixed","id":"4243","_umap_options":{"showLabel": 0}}},
{"type": "Feature","geometry":{"coordinates": [-0.067113,51.61053],"type":"Point"},"properties":{"Address":"N182SY","name":"Cara","hfrecnum":"4242","Event":"Lordship Hub","fldsize":"6.3","fldtype":"fixed","id":"4242","_umap_options":{"showLabel": 0}}},
{"type": "Feature","geometry":{"coordinates": [-0.133128,51.57999],"type":"Point"},"properties":{"Address":"N65RG","name":"Nicole","hfrecnum":"4241","Event":"Lordship Hub","fldsize":"6.3","fldtype":"fixed","id":"4241","_umap_options":{"showLabel": 0}}},
{"type": "Feature","geometry":{"coordinates": [-0.049775,51.552738],"type":"Point"},"properties":{"Address":"E50LY","name":"Daniel","hfrecnum":"4240","Event":"Lordship Hub","fldsize":"6.3","fldtype":"NOT FAULTY","id":"4240","_umap_options":{"showLabel": 0}}},
{"type": "Feature","geometry":{"coordinates": [-0.079197,51.563419],"type":"Point"},"properties":{"Address":"N160AJ","name":"Rosie","hfrecnum":"4239","Event":"Lordship Hub","fldsize":"6.3","fldtype":"fixed","id":"4239","_umap_options":{"showLabel": 0}}},
{"type": "Feature","geometry":{"coordinates": [-0.089905,51.601218],"type":"Point"},"properties":{"Address":"N177EG","name":"Larbi","hfrecnum":"4238","Event":"Lordship Hub","fldsize":"6.3","fldtype":"Beyond Repair","id":"4238","_umap_options":{"showLabel": 0}}},
{"type": "Feature","geometry":{"coordinates": [-0.057993,51.588773],"type":"Point"},"properties":{"Address":"N179FF","name":"Yasser","hfrecnum":"4237","Event":"Lordship Hub","fldsize":"6.3","fldtype":"Beyond Repair","id":"4237","_umap_options":{"showLabel": 0}}},
{"type": "Feature","geometry":{"coordinates": [-0.120144,51.574945],"type":"Point"},"properties":{"Address":"N89EL","name":"erin","hfrecnum":"4236","Event":"Lordship Hub","fldsize":"6.3","fldtype":"Beyond Repair","id":"4236","_umap_options":{"showLabel": 0}}},
{"type": "Feature","geometry":{"coordinates": [-0.095721,51.574039],"type":"Point"},"properties":{"Address":"N41DH","name":"Chris","hfrecnum":"4234","Event":"Lordship Hub","fldsize":"6.3","fldtype":"donation","id":"4234","_umap_options":{"showLabel": 0}}},
{"type": "Feature","geometry":{"coordinates": [-0.073298,51.572234],"type":"Point"},"properties":{"Address":"N165RP","name":"James","hfrecnum":"4231","Event":"Broadwater Farm","fldsize":"6.3","fldtype":"Unable to fix","id":"4231","_umap_options":{"showLabel": 0}}},
{"type": "Feature","geometry":{"coordinates": [-0.073298,51.572234],"type":"Point"},"properties":{"Address":"N165RP","name":"James","hfrecnum":"4230","Event":"Broadwater Farm","fldsize":"6.3","fldtype":"fixed","id":"4230","_umap_options":{"showLabel": 0}}},
{"type": "Feature","geometry":{"coordinates": [-0.127538,51.577635],"type":"Point"},"properties":{"Address":"N88EH","name":"rebecca","hfrecnum":"4229","Event":"Broadwater Farm","fldsize":"6.3","fldtype":"fixed","id":"4229","_umap_options":{"showLabel": 0}}},
{"type": "Feature","geometry":{"coordinates": [-0.095138,51.563472],"type":"Point"},"properties":{"Address":"N42HR","name":"Mez","hfrecnum":"4228","Event":"Broadwater Farm","fldsize":"6.3","fldtype":"Unable to fix","id":"4228","_umap_options":{"showLabel": 0}}},
{"type": "Feature","geometry":{"coordinates": [-0.05903,51.590092],"type":"Point"},"properties":{"Address":"N179FQ","name":"Lorna","hfrecnum":"4226","Event":"Broadwater Farm","fldsize":"6.3","fldtype":"diagnosed","id":"4226","_umap_options":{"showLabel": 0}}},
{"type": "Feature","geometry":{"coordinates": [-0.090372,51.599733],"type":"Point"},"properties":{"Address":"N177EU","name":"Owen","hfrecnum":"4225","Event":"Broadwater Farm","fldsize":"6.3","fldtype":"diagnosed","id":"4225","_umap_options":{"showLabel": 0}}},
{"type": "Feature","geometry":{"coordinates": [-0.11054,51.640166],"type":"Point"},"properties":{"Address":"N211JT","name":"Trudi-Joy","hfrecnum":"4224","Event":"Broadwater Farm","fldsize":"6.3","fldtype":"diagnosed","id":"4224","_umap_options":{"showLabel": 0}}},
{"type": "Feature","geometry":{"coordinates": [-0.105242,51.562665],"type":"Point"},"properties":{"Address":"N42QQ","name":"Natasha","hfrecnum":"4223","Event":"Broadwater Farm","fldsize":"6.3","fldtype":"fixed","id":"4223","_umap_options":{"showLabel": 0}}},
{"type": "Feature","geometry":{"coordinates": [-0.073827,51.583285],"type":"Point"},"properties":{"Address":"N155JX","name":"Jenny","hfrecnum":"4221","Event":"Broadwater Farm","fldsize":"6.3","fldtype":"Beyond Repair","id":"4221","_umap_options":{"showLabel": 0}}},
{"type": "Feature","geometry":{"coordinates": [-0.084505,51.595717],"type":"Point"},"properties":{"Address":"N176HG","name":"Naomi","hfrecnum":"4220","Event":"Broadwater Farm","fldsize":"6.3","fldtype":"Beyond Repair","id":"4220","_umap_options":{"showLabel": 0}}},
{"type": "Feature","geometry":{"coordinates": [-0.084505,51.595717],"type":"Point"},"properties":{"Address":"N176HG","name":"Tony","hfrecnum":"4218","Event":"Broadwater Farm","fldsize":"6.3","fldtype":"Beyond Repair","id":"4218","_umap_options":{"showLabel": 0}}},
{"type": "Feature","geometry":{"coordinates": [-0.084505,51.595717],"type":"Point"},"properties":{"Address":"N176HG","name":"Abiy","hfrecnum":"4217","Event":"Broadwater Farm","fldsize":"6.3","fldtype":"fixed","id":"4217","_umap_options":{"showLabel": 0}}},
{"type": "Feature","geometry":{"coordinates": [-0.084505,51.595717],"type":"Point"},"properties":{"Address":"N176HG","name":"Wimbo","hfrecnum":"4216","Event":"Broadwater Farm","fldsize":"6.3","fldtype":"Unable to fix","id":"4216","_umap_options":{"showLabel": 0}}},
{"type": "Feature","geometry":{"coordinates": [-0.099965,51.587488],"type":"Point"},"properties":{"Address":"N153DD","name":"Adham","hfrecnum":"4210","Event":"All Good Bookshop","fldsize":"6.3","fldtype":"Unable to fix","id":"4210","_umap_options":{"showLabel": 0}}},
{"type": "Feature","geometry":{"coordinates": [-0.13496,51.570506],"type":"Point"},"properties":{"Address":"N193TN","name":"Ben","hfrecnum":"4209","Event":"All Good Bookshop","fldsize":"6.3","fldtype":"Unable to fix","id":"4209","_umap_options":{"showLabel": 0}}},
{"type": "Feature","geometry":{"coordinates": [-0.100452,51.576232],"type":"Point"},