{"type":"FeatureCollection","features":[
{"type": "Feature","geometry":{"coordinates": [-0.084505,51.595717],"type":"Point"},"properties":{"Address":"N17 6HG","name":"Andrew","hfrecnum":1810,"EventName":"18","id":"2238","fldsize":"6.3","fldtype":"Self-repair","id":"2238"}},
{"type": "Feature","geometry":{"coordinates": [-0.079197,51.563419],"type":"Point"},"properties":{"Address":"N16 0AJ","name":"Beverley","hfrecnum":1811,"EventName":"18","id":"2237","fldsize":"6.3","fldtype":"partial fix","id":"2237"}},
{"type": "Feature","geometry":{"coordinates": [-0.433599,51.620506],"type":"Point"},"properties":{"Address":"HA6 2FF","name":"Nihal","hfrecnum":1813,"EventName":"18","id":"2235","fldsize":"6.3","fldtype":"diagnosed","id":"2235"}},
{"type": "Feature","geometry":{"coordinates": [-0.11528,51.58585],"type":"Point"},"properties":{"Address":"N8 7BU","name":"Mirjam","hfrecnum":1814,"EventName":"18","id":"2234","fldsize":"6.3","fldtype":"Beyond Repair","id":"2234"}},
{"type": "Feature","geometry":{"coordinates": [-0.11528,51.58585],"type":"Point"},"properties":{"Address":"N8 7BU","name":"Mirjam","hfrecnum":1815,"EventName":"18","id":"2233","fldsize":"6.3","fldtype":"Beyond Repair","id":"2233"}},
{"type": "Feature","geometry":{"coordinates": [-0.084505,51.595717],"type":"Point"},"properties":{"Address":"N17 6HG","name":"Chloe","hfrecnum":1816,"EventName":"18","id":"2232","fldsize":"6.3","fldtype":"Beyond Repair","id":"2232"}},
{"type": "Feature","geometry":{"coordinates": [-0.084505,51.595717],"type":"Point"},"properties":{"Address":"N17 6HG","name":"Alex","hfrecnum":1817,"EventName":"18","id":"2231","fldsize":"6.3","fldtype":"Beyond Repair","id":"2231"}},
{"type": "Feature","geometry":{"coordinates": [-0.084505,51.595717],"type":"Point"},"properties":{"Address":"N17 6HG","name":"Rosa","hfrecnum":1818,"EventName":"18","id":"2230","fldsize":"6.3","fldtype":"Beyond Repair","id":"2230"}},
{"type": "Feature","geometry":{"coordinates": [-0.084505,51.595717],"type":"Point"},"properties":{"Address":"N17 6HG","name":"Lola","hfrecnum":1820,"EventName":"18","id":"2228","fldsize":"6.3","fldtype":"Beyond Repair","id":"2228"}},
{"type": "Feature","geometry":{"coordinates": [-0.084505,51.595717],"type":"Point"},"properties":{"Address":"N17 6HG","name":"Suzy","hfrecnum":1821,"EventName":"18","id":"2227","fldsize":"6.3","fldtype":"Self-repair","id":"2227"}},
{"type": "Feature","geometry":{"coordinates": [-0.084505,51.595717],"type":"Point"},"properties":{"Address":"N17 6HG","name":"Francis","hfrecnum":1822,"EventName":"18","id":"2226","fldsize":"6.3","fldtype":"Self-repair","id":"2226"}},
{"type": "Feature","geometry":{"coordinates": [-0.084505,51.595717],"type":"Point"},"properties":{"Address":"N17 6HG","name":"Conrad","hfrecnum":1823,"EventName":"18","id":"2225","fldsize":"6.3","fldtype":"Self-repair","id":"2225"}},
{"type": "Feature","geometry":{"coordinates": [-0.084505,51.595717],"type":"Point"},"properties":{"Address":"N17 6HG","name":"kenupet","hfrecnum":1824,"EventName":"18","id":"2224","fldsize":"6.3","fldtype":"fixed","id":"2224"}},
{"type": "Feature","geometry":{"coordinates": [-0.084505,51.595717],"type":"Point"},"properties":{"Address":"N17 6HG","name":"","hfrecnum":1825,"EventName":"18","id":"2223","fldsize":"6.3","fldtype":"Beyond Repair","id":"2223"}},
{"type": "Feature","geometry":{"coordinates": [-0.074744,51.59582],"type":"Point"},"properties":{"Address":"N17 6RJ","name":"Gareth","hfrecnum":1827,"EventName":"18","id":"2221","fldsize":"6.3","fldtype":"diagnosed","id":"2221"}},
{"type": "Feature","geometry":{"coordinates": [-0.124154,51.629998],"type":"Point"},"properties":{"Address":"N14 6DS","name":"Anita","hfrecnum":1828,"EventName":"18","id":"2220","fldsize":"6.3","fldtype":"diagnosed","id":"2220"}},
{"type": "Feature","geometry":{"coordinates": [-0.084505,51.595717],"type":"Point"},"properties":{"Address":"N17 6HG","name":"Elizabeth","hfrecnum":1710,"EventName":"17","id":"2213","fldsize":"6.3","fldtype":"Beyond Repair","id":"2213"}},
{"type": "Feature","geometry":{"coordinates": [-0.084505,51.595717],"type":"Point"},"properties":{"Address":"N17 6HG","name":"Marcia","hfrecnum":1711,"EventName":"17","id":"2212","fldsize":"6.3","fldtype":"Beyond Repair","id":"2212"}},
{"type": "Feature","geometry":{"coordinates": [-0.105105,51.570499],"type":"Point"},"properties":{"Address":"N4 1D","name":"Sim","hfrecnum":1712,"EventName":"17","id":"2211","fldsize":"6.3","fldtype":"Beyond Repair","id":"2211"}},
{"type": "Feature","geometry":{"coordinates": [-0.105105,51.570499],"type":"Point"},"properties":{"Address":"N4 1D","name":"Sim","hfrecnum":1713,"EventName":"17","id":"2210","fldsize":"6.3","fldtype":"Beyond Repair","id":"2210"}},
{"type": "Feature","geometry":{"coordinates": [-0.433599,51.620506],"type":"Point"},"properties":{"Address":"HA6 2FF","name":"Nihal","hfrecnum":1714,"EventName":"17","id":"2209","fldsize":"6.3","fldtype":"Self-repair","id":"2209"}},
{"type": "Feature","geometry":{"coordinates": [-0.080245,51.594011],"type":"Point"},"properties":{"Address":"N17 6ND","name":"Patricia","hfrecnum":1724,"EventName":"17","id":"2199","fldsize":"6.3","fldtype":"fixed","id":"2199"}},
{"type": "Feature","geometry":{"coordinates": [-0.084978,51.59202],"type":"Point"},"properties":{"Address":"N17 6NR","name":"Gabby","hfrecnum":1725,"EventName":"17","id":"2198","fldsize":"6.3","fldtype":"Beyond Repair","id":"2198"}},
{"type": "Feature","geometry":{"coordinates": [-0.084505,51.595717],"type":"Point"},"properties":{"Address":"N17 6HG","name":"Susana","hfrecnum":1610,"EventName":"16","id":"2195","fldsize":"6.3","fldtype":"Beyond Repair","id":"2195"}},
{"type": "Feature","geometry":{"coordinates": [-0.086643,51.58881],"type":"Point"},"properties":{"Address":"N17 6PN","name":"Kate","hfrecnum":1611,"EventName":"16","id":"2194","fldsize":"6.3","fldtype":"fixed?","id":"2194"}},
{"type": "Feature","geometry":{"coordinates": [-0.084978,51.59202],"type":"Point"},"properties":{"Address":"N17 6NR","name":"Gabrielle","hfrecnum":1612,"EventName":"16","id":"2193","fldsize":"6.3","fldtype":"diagnosed","id":"2193"}},
{"type": "Feature","geometry":{"coordinates": [-0.084505,51.595717],"type":"Point"},"properties":{"Address":"N17 6HG","name":"Julie","hfrecnum":1613,"EventName":"16","id":"2192","fldsize":"6.3","fldtype":"Self-repair","id":"2192"}},
{"type": "Feature","geometry":{"coordinates": [-0.097542,51.577755],"type":"Point"},"properties":{"Address":"N4 1HU","name":"Inger","hfrecnum":1614,"EventName":"16","id":"2191","fldsize":"6.3","fldtype":"diagnosed","id":"2191"}},
{"type": "Feature","geometry":{"coordinates": [-0.083266,51.595301],"type":"Point"},"properties":{"Address":" N17 6LT","name":"Jinghua","hfrecnum":1616,"EventName":"16","id":"2189","fldsize":"6.3","fldtype":"fixed","id":"2189"}},
{"type": "Feature","geometry":{"coordinates": [-0.084505,51.595717],"type":"Point"},"properties":{"Address":"N17 6HG","name":"Serena","hfrecnum":1617,"EventName":"16","id":"2188","fldsize":"6.3","fldtype":"fixed","id":"2188"}},
{"type": "Feature","geometry":{"coordinates": [-0.084505,51.595717],"type":"Point"},"properties":{"Address":"N17 6HG","name":"Grit","hfrecnum":1619,"EventName":"16","id":"2186","fldsize":"6.3","fldtype":"diagnosed","id":"2186"}},
{"type": "Feature","geometry":{"coordinates": [-0.084505,51.595717],"type":"Point"},"properties":{"Address":"N17 6HG","name":"Gabby","hfrecnum":1620,"EventName":"16","id":"2185","fldsize":"6.3","fldtype":"Beyond Repair","id":"2185"}},
{"type": "Feature","geometry":{"coordinates": [-0.086643,51.58881],"type":"Point"},"properties":{"Address":"N17 6PN","name":"Kate","hfrecnum":1510,"EventName":"15","id":"2178","fldsize":"6.3","fldtype":"fixed","id":"2178"}},
{"type": "Feature","geometry":{"coordinates": [-0.087004,51.592251],"type":"Point"},"properties":{"Address":"N17 6NU","name":"","hfrecnum":1511,"EventName":"15","id":"2177","fldsize":"6.3","fldtype":"diagnosed","id":"2177"}},
{"type": "Feature","geometry":{"coordinates": [-0.087004,51.592251],"type":"Point"},"properties":{"Address":"N17 6NU","name":"Rakhi ","hfrecnum":1512,"EventName":"15","id":"2176","fldsize":"6.3","fldtype":"Self-repair","id":"2176"}},
{"type": "Feature","geometry":{"coordinates": [-0.087004,51.592251],"type":"Point"},"properties":{"Address":"N17 6NU","name":"Georgina","hfrecnum":1513,"EventName":"15","id":"2175","fldsize":"6.3","fldtype":"Beyond Repair","id":"2175"}},
{"type": "Feature","geometry":{"coordinates": [-0.105105,51.570499],"type":"Point"},"properties":{"Address":"N4 1D","name":"Annie","hfrecnum":1514,"EventName":"15","id":"2174","fldsize":"6.3","fldtype":"fixed","id":"2174"}},
{"type": "Feature","geometry":{"coordinates": [-0.087004,51.592251],"type":"Point"},"properties":{"Address":"N17 6NU","name":"Annie","hfrecnum":1515,"EventName":"15","id":"2173","fldsize":"6.3","fldtype":"diagnosed","id":"2173"}},
{"type": "Feature","geometry":{"coordinates": [-0.094453,51.640553],"type":"Point"},"properties":{"Address":"N21 2EX","name":"Paul","hfrecnum":1516,"EventName":"15","id":"2172","fldsize":"6.3","fldtype":"Self-repair","id":"2172"}},
{"type": "Feature","geometry":{"coordinates": [-0.087004,51.592251],"type":"Point"},"properties":{"Address":"N17 6NU","name":"Ruth","hfrecnum":1518,"EventName":"15","id":"2170","fldsize":"6.3","fldtype":"fixed","id":"2170"}},
{"type": "Feature","geometry":{"coordinates": [-0.087004,51.592251],"type":"Point"},"properties":{"Address":"N17 6NU","name":"Maggie","hfrecnum":1520,"EventName":"15","id":"2168","fldsize":"6.3","fldtype":"fixed","id":"2168"}},
{"type": "Feature","geometry":{"coordinates": [-0.087004,51.592251],"type":"Point"},"properties":{"Address":"N17 6NU","name":"Emily","hfrecnum":1521,"EventName":"15","id":"2167","fldsize":"6.3","fldtype":"fixed","id":"2167"}},
{"type": "Feature","geometry":{"coordinates": [-0.087004,51.592251],"type":"Point"},"properties":{"Address":"N17 6NU","name":"Fin","hfrecnum":1522,"EventName":"15","id":"2166","fldsize":"6.3","fldtype":"Self-repair","id":"2166"}},
{"type": "Feature","geometry":{"coordinates": [-0.092838,51.596089],"type":"Point"},"properties":{"Address":"N22 6AJ","name":"Lucy","hfrecnum":1524,"EventName":"15","id":"2164","fldsize":"6.3","fldtype":"fixed","id":"2164"}},
{"type": "Feature","geometry":{"coordinates": [-0.087004,51.592251],"type":"Point"},"properties":{"Address":"N17 6NU","name":"Helen","hfrecnum":1525,"EventName":"15","id":"2163","fldsize":"6.3","fldtype":"fixed","id":"2163"}},
{"type": "Feature","geometry":{"coordinates": [-0.127131,51.528539],"type":"Point"},"properties":{"Address":"NW1 2RA","name":"Alice","hfrecnum":1527,"EventName":"15","id":"2161","fldsize":"6.3","fldtype":"Self-repair","id":"2161"}},
{"type": "Feature","geometry":{"coordinates": [-0.080245,51.594011],"type":"Point"},"properties":{"Address":"N17 6ND","name":"internal","hfrecnum":1528,"EventName":"15","id":"2160","fldsize":"6.3","fldtype":"fixed","id":"2160"}},
{"type": "Feature","geometry":{"coordinates": [-0.087004,51.592251],"type":"Point"},"properties":{"Address":"N17 6NU","name":"Karia","hfrecnum":1529,"EventName":"15","id":"2159","fldsize":"6.3","fldtype":"Self-repair","id":"2159"}},
{"type": "Feature","geometry":{"coordinates": [-0.087004,51.592251],"type":"Point"},"properties":{"Address":"N17 6NU","name":"Quentin","hfrecnum":1530,"EventName":"15","id":"2158","fldsize":"6.3","fldtype":"fixed","id":"2158"}},
{"type": "Feature","geometry":{"coordinates": [-0.087004,51.592251],"type":"Point"},"properties":{"Address":"N17 6NU","name":"Jen","hfrecnum":1531,"EventName":"15","id":"2157","fldsize":"6.3","fldtype":"diagnosed","id":"2157"}},
{"type": "Feature","geometry":{"coordinates": [-0.087004,51.592251],"type":"Point"},"properties":{"Address":"N17 6NU","name":"","hfrecnum":1532,"EventName":"15","id":"2156","fldsize":"6.3","fldtype":"diagnosed","id":"2156"}},
{"type": "Feature","geometry":{"coordinates": [-0.087004,51.592251],"type":"Point"},"properties":{"Address":"N17 6NU","name":"","hfrecnum":1533,"EventName":"15","id":"2155","fldsize":"6.3","fldtype":"fixed","id":"2155"}},
{"type": "Feature","geometry":{"coordinates": [-0.084505,51.595717],"type":"Point"},"properties":{"Address":"N17 6HG","name":"Mahmoud","hfrecnum":1410,"EventName":"14","id":"2149","fldsize":"6.3","fldtype":"diagnosed","id":"2149"}},
{"type": "Feature","geometry":{"coordinates": [-0.084505,51.595717],"type":"Point"},"properties":{"Address":"N17 6HG","name":"Natasha","hfrecnum":1412,"EventName":"14","id":"2147","fldsize":"6.3","fldtype":"fixed","id":"2147"}},
{"type": "Feature","geometry":{"coordinates": [-0.084505,51.595717],"type":"Point"},"properties":{"Address":"N17 6HG","name":"Roy","hfrecnum":1413,"EventName":"14","id":"2146","fldsize":"6.3","fldtype":"fixed","id":"2146"}},
{"type": "Feature","geometry":{"coordinates": [-0.084505,51.595717],"type":"Point"},"properties":{"Address":"N17 6HG","name":"Chris","hfrecnum":1415,"EventName":"14","id":"2144","fldsize":"6.3","fldtype":"diagnosed","id":"2144"}},
{"type": "Feature","geometry":{"coordinates": [-0.084505,51.595717],"type":"Point"},"properties":{"Address":"N17 6HG","name":"Peter","hfrecnum":1416,"EventName":"14","id":"2143","fldsize":"6.3","fldtype":"Beyond Repair","id":"2143"}},
{"type": "Feature","geometry":{"coordinates": [-0.084505,51.595717],"type":"Point"},"properties":{"Address":"N17 6HG","name":"Amanda","hfrecnum":1417,"EventName":"14","id":"2142","fldsize":"6.3","fldtype":"Self-repair","id":"2142"}},
{"type": "Feature","geometry":{"coordinates": [-0.084505,51.595717],"type":"Point"},"properties":{"Address":"N17 6HG","name":"Amanda","hfrecnum":1418,"EventName":"14","id":"2141","fldsize":"6.3","fldtype":"Self-repair","id":"2141"}},
{"type": "Feature","geometry":{"coordinates": [-0.084505,51.595717],"type":"Point"},"properties":{"Address":"N17 6HG","name":"Rowan","hfrecnum":1419,"EventName":"14","id":"2140","fldsize":"6.3","fldtype":"fixed","id":"2140"}},
{"type": "Feature","geometry":{"coordinates": [-0.124154,51.629998],"type":"Point"},"properties":{"Address":"N14 6DS","name":"Anita","hfrecnum":1421,"EventName":"14","id":"2138","fldsize":"6.3","fldtype":"fixed","id":"2138"}},
{"type": "Feature","geometry":{"coordinates": [-0.084505,51.595717],"type":"Point"},"properties":{"Address":"N17 6HG","name":"Jenny","hfrecnum":1422,"EventName":"14","id":"2137","fldsize":"6.3","fldtype":"shop repair","id":"2137"}},
{"type": "Feature","geometry":{"coordinates": [-0.107305,51.605478],"type":"Point"},"properties":{"Address":"N22 5HT","name":"Pam","hfrecnum":1423,"EventName":"14","id":"2136","fldsize":"6.3","fldtype":"Self-repair","id":"2136"}},
{"type": "Feature","geometry":{"coordinates": [-0.084505,51.595717],"type":"Point"},"properties":{"Address":"N17 6HG","name":"Judith","hfrecnum":1424,"EventName":"14","id":"2135","fldsize":"6.3","fldtype":"fixed","id":"2135"}},
{"type": "Feature","geometry":{"coordinates": [-0.084505,51.595717],"type":"Point"},"properties":{"Address":"N17 6HG","name":"Pauline","hfrecnum":1425,"EventName":"14","id":"2134","fldsize":"6.3","fldtype":"diagnosed","id":"2134"}},
{"type": "Feature","geometry":{"coordinates": [-0.084505,51.595717],"type":"Point"},"properties":{"Address":"N17 6HG","name":"hf","hfrecnum":1426,"EventName":"14","id":"2133","fldsize":"6.3","fldtype":"fixed","id":"2133"}},
{"type": "Feature","geometry":{"coordinates": [-0.087004,51.592251],"type":"Point"},"properties":{"Address":"N17 6NU","name":"Mahmoud","hfrecnum":1310,"EventName":"13","id":"2124","fldsize":"6.3","fldtype":"fixed","id":"2124"}},
{"type": "Feature","geometry":{"coordinates": [-0.078524,51.593167],"type":"Point"},"properties":{"Address":"N17 6TQ","name":"Christine","hfrecnum":1311,"EventName":"13","id":"2123","fldsize":"6.3","fldtype":"diagnosed","id":"2123"}},
{"type": "Feature","geometry":{"coordinates": [-0.087004,51.592251],"type":"Point"},"properties":{"Address":"N17 6NU","name":"Freidrich","hfrecnum":1312,"EventName":"13","id":"2122","fldsize":"6.3","fldtype":"Self-repair","id":"2122"}},
{"type": "Feature","geometry":{"coordinates": [-0.108559,51.578005],"type":"Point"},"properties":{"Address":"N4 4JT","name":"Jennifer","hfrecnum":1313,"EventName":"13","id":"2121","fldsize":"6.3","fldtype":"diagnosed","id":"2121"}},
{"type": "Feature","geometry":{"coordinates": [-0.083604,51.593454],"type":"Point"},"properties":{"Address":"N17 6LL","name":"Lucy","hfrecnum":1314,"EventName":"13","id":"2120","fldsize":"6.3","fldtype":"Beyond Repair","id":"2120"}},
{"type": "Feature","geometry":{"coordinates": [-0.087004,51.592251],"type":"Point"},"properties":{"Address":"N17 6NU","name":"Richard","hfrecnum":1315,"EventName":"13","id":"2119","fldsize":"6.3","fldtype":"fixed","id":"2119"}},
{"type": "Feature","geometry":{"coordinates": [-0.087004,51.592251],"type":"Point"},"properties":{"Address":"N17 6NU","name":"Pamela","hfrecnum":1316,"EventName":"13","id":"2118","fldsize":"6.3","fldtype":"fixed","id":"2118"}},
{"type": "Feature","geometry":{"coordinates": [-0.087004,51.592251],"type":"Point"},"properties":{"Address":"N17 6NU","name":"Janis","hfrecnum":1317,"EventName":"13","id":"2117","fldsize":"6.3","fldtype":"Beyond Repair","id":"2117"}},
{"type": "Feature","geometry":{"coordinates": [-0.084505,51.595717],"type":"Point"},"properties":{"Address":"N17 6HG","name":"James","hfrecnum":1210,"EventName":"12","id":"2114","fldsize":"6.3","fldtype":"Beyond Repair","id":"2114"}},
{"type": "Feature","geometry":{"coordinates": [-0.084505,51.595717],"type":"Point"},"properties":{"Address":"N17 6HG","name":"Luis","hfrecnum":1211,"EventName":"12","id":"2113","fldsize":"6.3","fldtype":"fixed","id":"2113"}},
{"type": "Feature","geometry":{"coordinates": [-0.124154,51.629998],"type":"Point"},"properties":{"Address":"N14 6DS","name":"Anita","hfrecnum":1212,"EventName":"12","id":"2112","fldsize":"6.3","fldtype":"Self-repair","id":"2112"}},
{"type": "Feature","geometry":{"coordinates": [-0.079659,51.591492],"type":"Point"},"properties":{"Address":"N17 6TP","name":"Alyson","hfrecnum":1213,"EventName":"12","id":"2111","fldsize":"6.3","fldtype":"fixed","id":"2111"}},
{"type": "Feature","geometry":{"coordinates": [-0.084505,51.595717],"type":"Point"},"properties":{"Address":"N17 6HG","name":"Judith","hfrecnum":1215,"EventName":"12","id":"2109","fldsize":"6.3","fldtype":"fixed","id":"2109"}},
{"type": "Feature","geometry":{"coordinates": [-0.084505,51.595717],"type":"Point"},"properties":{"Address":"N17 6HG","name":"A.N.Other","hfrecnum":1216,"EventName":"12","id":"2108","fldsize":"6.3","fldtype":"fixed","id":"2108"}},
{"type": "Feature","geometry":{"coordinates": [-0.084505,51.595717],"type":"Point"},"properties":{"Address":"N17 6HG","name":"Amira","hfrecnum":1217,"EventName":"12","id":"2107","fldsize":"6.3","fldtype":"fixed","id":"2107"}},
{"type": "Feature","geometry":{"coordinates": [-0.084505,51.595717],"type":"Point"},"properties":{"Address":"N17 6HG","name":"Shanna","hfrecnum":1218,"EventName":"12","id":"2106","fldsize":"6.3","fldtype":"fixed","id":"2106"}},
{"type": "Feature","geometry":{"coordinates": [-0.084505,51.595717],"type":"Point"},"properties":{"Address":"N17 6HG","name":"Jude","hfrecnum":1219,"EventName":"12","id":"2105","fldsize":"6.3","fldtype":"fixed","id":"2105"}},
{"type": "Feature","geometry":{"coordinates": [-0.098981,51.563678],"type":"Point"},"properties":{"Address":"N4 2BD","name":"Fredi","hfrecnum":1110,"EventName":"11","id":"2100","fldsize":"6.3","fldtype":"Beyond Repair","id":"2100"}},
{"type": "Feature","geometry":{"coordinates": [-0.087004,51.592251],"type":"Point"},"properties":{"Address":"N17 6NU","name":"Penny","hfrecnum":1111,"EventName":"11","id":"2099","fldsize":"6.3","fldtype":"Beyond Repair","id":"2099"}},
{"type": "Feature","geometry":{"coordinates": [-0.087004,51.592251],"type":"Point"},"properties":{"Address":"N17 6NU","name":"Penny","hfrecnum":1112,"EventName":"11","id":"2098","fldsize":"6.3","fldtype":"fixed","id":"2098"}},
{"type": "Feature","geometry":{"coordinates": [-0.105105,51.570499],"type":"Point"},"properties":{"Address":"N4 1D","name":"Annie","hfrecnum":1114,"EventName":"11","id":"2096","fldsize":"6.3","fldtype":"partial fix","id":"2096"}},
{"type": "Feature","geometry":{"coordinates": [-0.105867,51.596217],"type":"Point"},"properties":{"Address":"N22 6LY","name":"Marcia","hfrecnum":1115,"EventName":"11","id":"2095","fldsize":"6.3","fldtype":"NOT FAULTY","id":"2095"}},
{"type": "Feature","geometry":{"coordinates": [-0.087004,51.592251],"type":"Point"},"properties":{"Address":"N17 6NU","name":"Kate","hfrecnum":1116,"EventName":"11","id":"2094","fldsize":"6.3","fldtype":"diagnosed","id":"2094"}},
{"type": "Feature","geometry":{"coordinates": [-0.087004,51.592251],"type":"Point"},"properties":{"Address":"N17 6NU","name":"","hfrecnum":1117,"EventName":"11","id":"2093","fldsize":"6.3","fldtype":"fixed later","id":"2093"}},
{"type": "Feature","geometry":{"coordinates": [-0.087004,51.592251],"type":"Point"},"properties":{"Address":"N17 6NU","name":"Kate","hfrecnum":1118,"EventName":"11","id":"2092","fldsize":"6.3","fldtype":"fixed later","id":"2092"}},
{"type": "Feature","geometry":{"coordinates": [-0.084505,51.595717],"type":"Point"},"properties":{"Address":"N17 6HG","name":"Chanj","hfrecnum":1011,"EventName":"10","id":"2088","fldsize":"6.3","fldtype":"fixed","id":"2088"}},
{"type": "Feature","geometry":{"coordinates": [-0.084505,51.595717],"type":"Point"},"properties":{"Address":"N17 6HG","name":"","hfrecnum":1012,"EventName":"10","id":"2087","fldsize":"6.3","fldtype":"fixed","id":"2087"}},
{"type": "Feature","geometry":{"coordinates": [-0.084505,51.595717],"type":"Point"},"properties":{"Address":"N17 6HG","name":"Kay","hfrecnum":1013,"EventName":"10","id":"2086","fldsize":"6.3","fldtype":"diagnosed","id":"2086"}},
{"type": "Feature","geometry":{"coordinates": [-0.084505,51.595717],"type":"Point"},"properties":{"Address":"N17 6HG","name":"Suzanne","hfrecnum":1014,"EventName":"10","id":"2085","fldsize":"6.3","fldtype":"fixed","id":"2085"}},
{"type": "Feature","geometry":{"coordinates": [-0.084505,51.595717],"type":"Point"},"properties":{"Address":"N17 6HG","name":"Amy","hfrecnum":1015,"EventName":"10","id":"2084","fldsize":"6.3","fldtype":"Beyond Repair","id":"2084"}},
{"type": "Feature","geometry":{"coordinates": [-0.087004,51.592251],"type":"Point"},"properties":{"Address":"","name":"Marguerite","hfrecnum":910,"EventName":"9","id":"2079","fldsize":"6.3","fldtype":"fixed","id":"2079"}},
{"type": "Feature","geometry":{"coordinates": [-0.087004,51.592251],"type":"Point"},"properties":{"Address":"N17 6NU","name":"Amal","hfrecnum":912,"EventName":"9","id":"2077","fldsize":"6.3","fldtype":"Unable to fix","id":"2077"}},
{"type": "Feature","geometry":{"coordinates": [-0.1219690121,51.58415468],"type":"Point"},"properties":{"Address":"N8","name":"Yasemin","hfrecnum":913,"EventName":"9","id":"2076","fldsize":"6.3","fldtype":"fixed","id":"2076"}},
{"type": "Feature","geometry":{"coordinates": [-0.092838,51.596089],"type":"Point"},"properties":{"Address":"N22 6AJ","name":"Azim","hfrecnum":915,"EventName":"9","id":"2074","fldsize":"6.3","fldtype":"fixed later","id":"2074"}},
{"type": "Feature","geometry":{"coordinates": [-0.086643,51.58881],"type":"Point"},"properties":{"Address":"N17 6PN","name":"Kate","hfrecnum":917,"EventName":"9","id":"2072","fldsize":"6.3","fldtype":"fixed later","id":"2072"}},
{"type": "Feature","geometry":{"coordinates": [-0.087004,51.592251],"type":"Point"},"properties":{"Address":"N17 6NU","name":"Ross","hfrecnum":918,"EventName":"9","id":"2071","fldsize":"6.3","fldtype":"fixed later","id":"2071"}},
{"type": "Feature","geometry":{"coordinates": [-0.084505,51.595717],"type":"Point"},"properties":{"Address":"N17 6HG","name":"Sarah","hfrecnum":813,"EventName":"8","id":"2065","fldsize":"6.3","fldtype":"Beyond Repair","id":"2065"}},
{"type": "Feature","geometry":{"coordinates": [-0.084505,51.595717],"type":"Point"},"properties":{"Address":"N17 6HG","name":"","hfrecnum":814,"EventName":"8","id":"2064","fldsize":"6.3","fldtype":"diagnosed","id":"2064"}},
{"type": "Feature","geometry":{"coordinates": [-0.081228,51.590232],"type":"Point"},"properties":{"Address":"N17 6DU","name":"Lauren","hfrecnum":815,"EventName":"8","id":"2063","fldsize":"6.3","fldtype":"Beyond Repair","id":"2063"}},
{"type": "Feature","geometry":{"coordinates": [-0.079659,51.591492],"type":"Point"},"properties":{"Address":"N17 6TP","name":"Alyson","hfrecnum":816,"EventName":"8","id":"2062","fldsize":"6.3","fldtype":"fixed later","id":"2062"}},
{"type": "Feature","geometry":{"coordinates": [-0.084505,51.595717],"type":"Point"},"properties":{"Address":"N17 6HG","name":"","hfrecnum":817,"EventName":"8","id":"2061","fldsize":"6.3","fldtype":"Beyond Repair","id":"2061"}},
{"type": "Feature","geometry":{"coordinates": [-0.084505,51.595717],"type":"Point"},"properties":{"Address":"N17 6HG","name":"Jay","hfrecnum":818,"EventName":"8","id":"2060","fldsize":"6.3","fldtype":"diagnosed","id":"2060"}},
{"type": "Feature","geometry":{"coordinates": [-0.084505,51.595717],"type":"Point"},"properties":{"Address":"N17 6HG","name":"","hfrecnum":819,"EventName":"8","id":"2059","fldsize":"6.3","fldtype":"fixed","id":"2059"}},
{"type": "Feature","geometry":{"coordinates": [-0.084505,51.595717],"type":"Point"},"properties":{"Address":"N17 6HG","name":"Simon","hfrecnum":820,"EventName":"8","id":"2058","fldsize":"6.3","fldtype":"fixed","id":"2058"}},
{"type": "Feature","geometry":{"coordinates": [-0.084505,51.595717],"type":"Point"},"properties":{"Address":"N17 6HG","name":"Diane","hfrecnum":821,"EventName":"8","id":"2057","fldsize":"6.3","fldtype":"diagnosed","id":"2057"}},
{"type": "Feature","geometry":{"coordinates": [-0.065755,51.586833],"type":"Point"},"properties":{"Address":"N15 4AY","name":"Orla","hfrecnum":822,"EventName":"8","id":"2056","fldsize":"6.3","fldtype":"diagnosed","id":"2056"}},
{"type": "Feature","geometry":{"coordinates": [-0.087004,51.592251],"type":"Point"},"properties":{"Address":"N17 6NU","name":"Dan","hfrecnum":710,"EventName":"7","id":"2051","fldsize":"6.3","fldtype":"Unable to fix","id":"2051"}},
{"type": "Feature","geometry":{"coordinates": [-0.093571,51.600217],"type":"Point"},"properties":{"Address":"N22 5ET","name":"Veena","hfrecnum":711,"EventName":"7","id":"2050","fldsize":"6.3","fldtype":"fixed","id":"2050"}},
{"type": "Feature","geometry":{"coordinates": [-0.087004,51.592251],"type":"Point"},"properties":{"Address":"N17 6NU","name":"Ivana","hfrecnum":712,"EventName":"7","id":"2049","fldsize":"6.3","fldtype":"fixed","id":"2049"}},
{"type": "Feature","geometry":{"coordinates": [-0.087004,51.592251],"type":"Point"},"properties":{"Address":"N17 6NU","name":"","hfrecnum":713,"EventName":"7","id":"2048","fldsize":"6.3","fldtype":"fixed","id":"2048"}},
{"type": "Feature","geometry":{"coordinates": [-0.116682,51.591061],"type":"Point"},"properties":{"Address":"N8 7NP","name":"Nina & Alex","hfrecnum":714,"EventName":"7","id":"2047","fldsize":"6.3","fldtype":"Beyond Repair","id":"2047"}},
{"type": "Feature","geometry":{"coordinates": [-0.080035,51.606543],"type":"Point"},"properties":{"Address":"N17 8JJ","name":"Pearls","hfrecnum":715,"EventName":"7","id":"2046","fldsize":"6.3","fldtype":"diagnosed","id":"2046"}},
{"type": "Feature","geometry":{"coordinates": [-0.080035,51.606543],"type":"Point"},"properties":{"Address":"N17 8JJ","name":"Pearls","hfrecnum":716,"EventName":"7","id":"2045","fldsize":"6.3","fldtype":"diagnosed","id":"2045"}},
{"type": "Feature","geometry":{"coordinates": [-0.080035,51.606543],"type":"Point"},"properties":{"Address":"N17 8JJ","name":"Pearls","hfrecnum":717,"EventName":"7","id":"2044","fldsize":"6.3","fldtype":"diagnosed","id":"2044"}},
{"type": "Feature","geometry":{"coordinates": [-0.070861,51.581135],"type":"Point"},"properties":{"Address":"N15 4NT","name":"Abigail","hfrecnum":610,"EventName":"6","id":"2038","fldsize":"6.3","fldtype":"fixed","id":"2038"}},
{"type": "Feature","geometry":{"coordinates": [-0.084505,51.595717],"type":"Point"},"properties":{"Address":"N17 6HG","name":"Amy","hfrecnum":611,"EventName":"6","id":"2037","fldsize":"6.3","fldtype":"fixed later","id":"2037"}},
{"type": "Feature","geometry":{"coordinates": [-0.081923,51.594632],"type":"Point"},"properties":{"Address":"N17 6NG","name":"Cynthia","hfrecnum":613,"EventName":"6","id":"2035","fldsize":"6.3","fldtype":"fixed","id":"2035"}},
{"type": "Feature","geometry":{"coordinates": [-0.093947,51.594102],"type":"Point"},"properties":{"Address":"N22 6AR","name":"Ruhi","hfrecnum":510,"EventName":"5","id":"2031","fldsize":"6.3","fldtype":"REFUSED","id":"2031"}},
{"type": "Feature","geometry":{"coordinates": [-0.090797,51.585118],"type":"Point"},"properties":{"Address":"N15 3BT","name":"Kate","hfrecnum":511,"EventName":"5","id":"2030","fldsize":"6.3","fldtype":"partial fix","id":"2030"}},
{"type": "Feature","geometry":{"coordinates": [-0.087004,51.592251],"type":"Point"},"properties":{"Address":"N17 6NU","name":"Dan","hfrecnum":512,"EventName":"5","id":"2029","fldsize":"6.3","fldtype":"diagnosed","id":"2029"}},
{"type": "Feature","geometry":{"coordinates": [-0.09437,51.594601],"type":"Point"},"properties":{"Address":"N22 6QX","name":"Anne","hfrecnum":513,"EventName":"5","id":"2028","fldsize":"6.3","fldtype":"diagnosed","id":"2028"}},
{"type": "Feature","geometry":{"coordinates": [-0.083266,51.595301],"type":"Point"},"properties":{"Address":"N17 6LT","name":"Desmond","hfrecnum":410,"EventName":"4","id":"2024","fldsize":"6.3","fldtype":"Beyond Repair","id":"2024"}},
{"type": "Feature","geometry":{"coordinates": [-0.081923,51.594632],"type":"Point"},"properties":{"Address":"N17 6NG","name":"Inga","hfrecnum":411,"EventName":"4","id":"2023","fldsize":"6.3","fldtype":"fixed","id":"2023"}},
{"type": "Feature","geometry":{"coordinates": [-0.084505,51.595717],"type":"Point"},"properties":{"Address":"N17 6HG","name":"","hfrecnum":412,"EventName":"4","id":"2022","fldsize":"6.3","fldtype":"diagnosed","id":"2022"}},
{"type": "Feature","geometry":{"coordinates": [-0.088752,51.584045],"type":"Point"},"properties":{"Address":"N15 5BB","name":"Carol","hfrecnum":310,"EventName":"3","id":"2019","fldsize":"6.3","fldtype":"fixed","id":"2019"}},
{"type": "Feature","geometry":{"coordinates": [-0.087004,51.592251],"type":"Point"},"properties":{"Address":"N17 6NU","name":"Rupa","hfrecnum":311,"EventName":"3","id":"2018","fldsize":"6.3","fldtype":"fixed","id":"2018"}},
{"type": "Feature","geometry":{"coordinates": [-0.087004,51.592251],"type":"Point"},"properties":{"Address":"N17 6NU","name":"Laura","hfrecnum":312,"EventName":"3","id":"2017","fldsize":"6.3","fldtype":"Beyond Repair","id":"2017"}},
{"type": "Feature","geometry":{"coordinates": [-0.084505,51.595717],"type":"Point"},"properties":{"Address":"N17 6HG","name":"Nick","hfrecnum":210,"EventName":"2","id":"2013","fldsize":"6.3","fldtype":"diagnosed","id":"2013"}},
{"type": "Feature","geometry":{"coordinates": [-0.084505,51.595717],"type":"Point"},"properties":{"Address":"N17 6HG","name":"Karen","hfrecnum":215,"EventName":"2","id":"2008","fldsize":"6.3","fldtype":"Beyond Repair","id":"2008"}},
{"type": "Feature","geometry":{"coordinates": [-0.087004,51.592251],"type":"Point"},"properties":{"Address":"N17 6NU","name":"Manju","hfrecnum":110,"EventName":"1","id":"2004","fldsize":"6.3","fldtype":"fixed later","id":"2004"}},
{"type": "Feature","geometry":{"coordinates": [-0.087004,51.592251],"type":"Point"},"properties":{"Address":"N17 6NU","name":"Manju","hfrecnum":111,"EventName":"1","id":"2003","fldsize":"6.3","fldtype":"fixed later","id":"2003"}},
{"type": "Feature","geometry":{"coordinates": [-0.093571,51.600217],"type":"Point"},"properties":{"Address":"N22 5ET","name":"Veena","hfrecnum":112,"EventName":"1","id":"2002","fldsize":"6.3","fldtype":"Beyond Repair","id":"2002"}},
{"type": "Feature","geometry":{"coordinates": [-0.087004,51.592251],"type":"Point"},"properties":{"Address":"N17 6NU","name":"Alice","hfrecnum":113,"EventName":"1","id":"2001","fldsize":"6.3","fldtype":"diagnosed","id":"2001"}},
{"type": "Feature","geometry":{"coordinates": [-0.087004,51.592251],"type":"Point"},"properties":{"Address":"N17 6NU","name":"Kooldip (KK)","hfrecnum":114,"EventName":"1","id":"2000","fldsize":"6.3","fldtype":"Beyond Repair","id":"2000"}}],
"_umap_options":{"showLabel": 1,"displayOnLoad":true,"inCaption":true,"browsable":true,"editMode":"advanced","name":"2022 postcodes","remoteData":{"url":"https://raw.githubusercontent.com/haringeyfixers/data/refs/heads/main/eventdata/gsheet22.geojson","format":"geojson"},","description":"Postcode locations of all those who have booked a free ticket with us over the year @ https://HaringeyFixers.org","type":"Categorized", "cluster":{}, "iconClass":"Ball","color":"Coral", "categorized":{"categories":"All Good Bookshop,Broadwater Farm,Campsbourne,Lordship Hub, Wood Green Rising","property":"Event"},"popupContentTemplate":"# {name}\nPostcode: {Address}\n{Event}\nHF Record number: {hfrecnum}\nOutcome {fldtype}\nItem ID: {id}"}}
