{"type": "FeatureCollection", "features":[
{"type": "Feature","geometry":{"coordinates": [-0.084505,51.595717],"type":"Point"},"properties":{"Address":"N176HG","name":"Noel","hfrecnum":"2417","Event":"All Good Bookshop","fldsize":"6.3","fldtype":"Unable to fix","id":"2417","_umap_options":{"showLabel": 0}}},
{"type": "Feature","geometry":{"coordinates": [-0.084505,51.595717],"type":"Point"},"properties":{"Address":"N176HG","name":"Moselle Community","hfrecnum":"2411","Event":"All Good Bookshop","fldsize":"6.3","fldtype":"Beyond Repair","id":"2411","_umap_options":{"showLabel": 0}}},
{"type": "Feature","geometry":{"coordinates": [-0.084505,51.595717],"type":"Point"},"properties":{"Address":"N176HG","name":"Moselle Community","hfrecnum":"2406","Event":"All Good Bookshop","fldsize":"6.3","fldtype":"fixed","id":"2406","_umap_options":{"showLabel": 0}}},
{"type": "Feature","geometry":{"coordinates": [-0.084505,51.595717],"type":"Point"},"properties":{"Address":"N176HG","name":"Moselle Community","hfrecnum":"2406","Event":"All Good Bookshop","fldsize":"6.3","fldtype":"Beyond Repair","id":"2406","_umap_options":{"showLabel": 0}}},
{"type": "Feature","geometry":{"coordinates": [-0.122618,51.580833],"type":"Point"},"properties":{"Address":"N88PT","name":"Ashley","hfrecnum":"2407","Event":"All Good Bookshop","fldsize":"6.3","fldtype":"fixed","id":"2407","_umap_options":{"showLabel": 0}}},
{"type": "Feature","geometry":{"coordinates": [-0.109846,51.567487],"type":"Point"},"properties":{"Address":"N43AB","name":"Helena","hfrecnum":"2409","Event":"All Good Bookshop","fldsize":"6.3","fldtype":"diagnosed","id":"2409","_umap_options":{"showLabel": 0}}},
{"type": "Feature","geometry":{"coordinates": [-0.151496,51.594705],"type":"Point"},"properties":{"Address":"N101NL","name":"richard","hfrecnum":"2410","Event":"All Good Bookshop","fldsize":"6.3","fldtype":"Unable to fix","id":"2410","_umap_options":{"showLabel": 0}}},
{"type": "Feature","geometry":{"coordinates": [-0.075547,51.567856],"type":"Point"},"properties":{"Address":"N165XE","name":"Denise","hfrecnum":"2412","Event":"All Good Bookshop","fldsize":"6.3","fldtype":"Unable to fix","id":"2412","_umap_options":{"showLabel": 0}}},
{"type": "Feature","geometry":{"coordinates": [-0.130192,51.600518],"type":"Point"},"properties":{"Address":"N227XW","name":"John","hfrecnum":"2413","Event":"All Good Bookshop","fldsize":"6.3","fldtype":"fixed","id":"2413","_umap_options":{"showLabel": 0}}},
{"type": "Feature","geometry":{"coordinates": [-0.09437,51.594601],"type":"Point"},"properties":{"Address":"N226QX","name":"Nik","hfrecnum":"2414","Event":"All Good Bookshop","fldsize":"6.3","fldtype":"Unable to fix","id":"2414","_umap_options":{"showLabel": 0}}},
{"type": "Feature","geometry":{"coordinates": [-0.084505,51.595717],"type":"Point"},"properties":{"Address":"N176HG","name":"Noel","hfrecnum":"","Event":"All Good Bookshop","fldsize":"6.3","fldtype":"","id":"","_umap_options":{"showLabel": 0}}},
{"type": "Feature","geometry":{"coordinates": [-0.118635,51.600657],"type":"Point"},"properties":{"Address":"N227DA","name":"Lou","hfrecnum":"2388","Event":"All Good Bookshop","fldsize":"6.3","fldtype":"diagnosed","id":"2388","_umap_options":{"showLabel": 0}}},
{"type": "Feature","geometry":{"coordinates": [-0.133088,51.554892],"type":"Point"},"properties":{"Address":"N70RB","name":"Assia","hfrecnum":"2389","Event":"All Good Bookshop","fldsize":"6.3","fldtype":"fixed","id":"2389","_umap_options":{"showLabel": 0}}},
{"type": "Feature","geometry":{"coordinates": [-0.118509,51.589463],"type":"Point"},"properties":{"Address":"N87FP","name":"Campsbourne community collective","hfrecnum":"2390","Event":"All Good Bookshop","fldsize":"6.3","fldtype":"interim retry","id":"2390","_umap_options":{"showLabel": 0}}},
{"type": "Feature","geometry":{"coordinates": [-0.12296,51.589621],"type":"Point"},"properties":{"Address":"N87QY","name":"Helena","hfrecnum":"2397","Event":"All Good Bookshop","fldsize":"6.3","fldtype":"fixed","id":"2397","_umap_options":{"showLabel": 0}}},
{"type": "Feature","geometry":{"coordinates": [-0.12296,51.589621],"type":"Point"},"properties":{"Address":"N87QY","name":"Helena","hfrecnum":"2398","Event":"All Good Bookshop","fldsize":"6.3","fldtype":"partial fix","id":"2398","_umap_options":{"showLabel": 0}}},
{"type": "Feature","geometry":{"coordinates": [-0.102161,51.577749],"type":"Point"},"properties":{"Address":"N41AA","name":"Anuj","hfrecnum":"2391","Event":"All Good Bookshop","fldsize":"6.3","fldtype":"fixed","id":"2391","_umap_options":{"showLabel": 0}}},
{"type": "Feature","geometry":{"coordinates": [-0.121616,51.589728],"type":"Point"},"properties":{"Address":"N87AD","name":"Morten","hfrecnum":"2392","Event":"All Good Bookshop","fldsize":"6.3","fldtype":"interim retry","id":"2392","_umap_options":{"showLabel": 0}}},
{"type": "Feature","geometry":{"coordinates": [-0.140385,51.597815],"type":"Point"},"properties":{"Address":"N102AD","name":"Alex","hfrecnum":"2399","Event":"All Good Bookshop","fldsize":"6.3","fldtype":"","id":"2399","_umap_options":{"showLabel": 0}}},
{"type": "Feature","geometry":{"coordinates": [-0.128129,51.588184],"type":"Point"},"properties":{"Address":"N87RT","name":"Richard","hfrecnum":"2400","Event":"All Good Bookshop","fldsize":"6.3","fldtype":"diagnosed","id":"2400","_umap_options":{"showLabel": 0}}},
{"type": "Feature","geometry":{"coordinates": [-0.09437,51.594601],"type":"Point"},"properties":{"Address":"N226QX","name":"Ade","hfrecnum":"2393","Event":"All Good Bookshop","fldsize":"6.3","fldtype":"diagnosed","id":"2393","_umap_options":{"showLabel": 0}}},
{"type": "Feature","geometry":{"coordinates": [-0.09437,51.594601],"type":"Point"},"properties":{"Address":"N226QX","name":"Nik","hfrecnum":"2395","Event":"All Good Bookshop","fldsize":"6.3","fldtype":"diagnosed","id":"2395","_umap_options":{"showLabel": 0}}},
{"type": "Feature","geometry":{"coordinates": [-0.116909,51.597006],"type":"Point"},"properties":{"Address":"N227SX","name":"Natalie","hfrecnum":"2396","Event":"All Good Bookshop","fldsize":"6.3","fldtype":"Beyond Repair","id":"2396","_umap_options":{"showLabel": 0}}},
{"type": "Feature","geometry":{"coordinates": [-0.121616,51.589728],"type":"Point"},"properties":{"Address":"N87AD","name":"Anna","hfrecnum":"2403","Event":"All Good Bookshop","fldsize":"6.3","fldtype":"donation","id":"2403","_umap_options":{"showLabel": 0}}},
{"type": "Feature","geometry":{"coordinates": [-0.287306,51.602898],"type":"Point"},"properties":{"Address":"HA86BS","name":"Gopal","hfrecnum":"2365","Event":"All Good Bookshop","fldsize":"6.3","fldtype":"volunteer1","id":"2365","_umap_options":{"showLabel": 0}}},
{"type": "Feature","geometry":{"coordinates": [-0.109708,51.541955],"type":"Point"},"properties":{"Address":"N11JU","name":"Alexander","hfrecnum":"2366","Event":"All Good Bookshop","fldsize":"6.3","fldtype":"fixed","id":"2366","_umap_options":{"showLabel": 0}}},
{"type": "Feature","geometry":{"coordinates": [-0.1229,51.588706],"type":"Point"},"properties":{"Address":"N87QU","name":"Hana","hfrecnum":"2367","Event":"All Good Bookshop","fldsize":"6.3","fldtype":"fixed","id":"2367","_umap_options":{"showLabel": 0}}},
{"type": "Feature","geometry":{"coordinates": [-0.142036,51.573918],"type":"Point"},"properties":{"Address":"N65BN","name":"Holly","hfrecnum":"2370","Event":"All Good Bookshop","fldsize":"6.3","fldtype":"fixed","id":"2370","_umap_options":{"showLabel": 0}}},
{"type": "Feature","geometry":{"coordinates": [-0.124283,51.591237],"type":"Point"},"properties":{"Address":"N87LN","name":"Cathy","hfrecnum":"2371","Event":"All Good Bookshop","fldsize":"6.3","fldtype":"Unable to fix","id":"2371","_umap_options":{"showLabel": 0}}},
{"type": "Feature","geometry":{"coordinates": [-0.103837,51.582569],"type":"Point"},"properties":{"Address":"N80BS","name":"Caroline","hfrecnum":"2372","Event":"All Good Bookshop","fldsize":"6.3","fldtype":"Unable to fix","id":"2372","_umap_options":{"showLabel": 0}}},
{"type": "Feature","geometry":{"coordinates": [-0.111587,51.625408],"type":"Point"},"properties":{"Address":"N134BN","name":"Suresh","hfrecnum":"2373","Event":"All Good Bookshop","fldsize":"6.3","fldtype":"partial fix","id":"2373","_umap_options":{"showLabel": 0}}},
{"type": "Feature","geometry":{"coordinates": [-0.111587,51.625408],"type":"Point"},"properties":{"Address":"N134BN","name":"Suresh","hfrecnum":"2379","Event":"All Good Bookshop","fldsize":"6.3","fldtype":"Unable to fix","id":"2379","_umap_options":{"showLabel": 0}}},
{"type": "Feature","geometry":{"coordinates": [-0.098303,51.591337],"type":"Point"},"properties":{"Address":"N226AA","name":"Kerry-Ann","hfrecnum":"2381","Event":"All Good Bookshop","fldsize":"6.3","fldtype":"Unable to fix","id":"2381","_umap_options":{"showLabel": 0}}},
{"type": "Feature","geometry":{"coordinates": [-0.094661,51.590748],"type":"Point"},"properties":{"Address":"N176AP","name":"Kumari","hfrecnum":"2382","Event":"All Good Bookshop","fldsize":"6.3","fldtype":"Self-repair","id":"2382","_umap_options":{"showLabel": 0}}},
{"type": "Feature","geometry":{"coordinates": [-0.105364,51.589665],"type":"Point"},"properties":{"Address":"N80EP","name":"Donna","hfrecnum":"2383","Event":"All Good Bookshop","fldsize":"6.3","fldtype":"Unable to fix","id":"2383","_umap_options":{"showLabel": 0}}},
{"type": "Feature","geometry":{"coordinates": [-0.105364,51.589665],"type":"Point"},"properties":{"Address":"N80EP","name":"internal","hfrecnum":"2384","Event":"All Good Bookshop","fldsize":"6.3","fldtype":"Beyond Repair","id":"2384","_umap_options":{"showLabel": 0}}},
{"type": "Feature","geometry":{"coordinates": [-0.105364,51.589665],"type":"Point"},"properties":{"Address":"N80EP","name":"","hfrecnum":"2385","Event":"All Good Bookshop","fldsize":"6.3","fldtype":"diagnosed","id":"2385","_umap_options":{"showLabel": 0}}},
{"type": "Feature","geometry":{"coordinates": [-0.087004,51.592251],"type":"Point"},"properties":{"Address":"N176NU","name":"Doris","hfrecnum":"2345","Event":"Lordship Hub","fldsize":"6.3","fldtype":"fixed","id":"2345","_umap_options":{"showLabel": 0}}},
{"type": "Feature","geometry":{"coordinates": [-0.103554,51.581036],"type":"Point"},"properties":{"Address":"N41AT","name":"Henry","hfrecnum":"2349","Event":"Lordship Hub","fldsize":"6.3","fldtype":"fixed","id":"2349","_umap_options":{"showLabel": 0}}},
{"type": "Feature","geometry":{"coordinates": [-0.059593,51.59993],"type":"Point"},"properties":{"Address":"N170NL","name":"Lucinda","hfrecnum":"2350","Event":"Lordship Hub","fldsize":"6.3","fldtype":"diagnosed","id":"2350","_umap_options":{"showLabel": 0}}},
{"type": "Feature","geometry":{"coordinates": [-0.079638,51.581117],"type":"Point"},"properties":{"Address":"N155HP","name":"Mayur","hfrecnum":"2351","Event":"Lordship Hub","fldsize":"6.3","fldtype":"fixed","id":"2351","_umap_options":{"showLabel": 0}}},
{"type": "Feature","geometry":{"coordinates": [-0.093702,51.584764],"type":"Point"},"properties":{"Address":"N153RT","name":"Christine","hfrecnum":"2352","Event":"Lordship Hub","fldsize":"6.3","fldtype":"Unable to fix","id":"2352","_umap_options":{"showLabel": 0}}},
{"type": "Feature","geometry":{"coordinates": [-0.105082,51.5849],"type":"Point"},"properties":{"Address":"N80NG","name":"Macu","hfrecnum":"2353","Event":"Lordship Hub","fldsize":"6.3","fldtype":"Unable to fix","id":"2353","_umap_options":{"showLabel": 0}}},
{"type": "Feature","geometry":{"coordinates": [-0.101648,51.584245],"type":"Point"},"properties":{"Address":"N80AG","name":"heather","hfrecnum":"2354","Event":"Lordship Hub","fldsize":"6.3","fldtype":"Unable to fix","id":"2354","_umap_options":{"showLabel": 0}}},
{"type": "Feature","geometry":{"coordinates": [-0.111183,51.593029],"type":"Point"},"properties":{"Address":"N80JX","name":"takatomo","hfrecnum":"2356","Event":"Lordship Hub","fldsize":"6.3","fldtype":"Beyond Repair","id":"2356","_umap_options":{"showLabel": 0}}},
{"type": "Feature","geometry":{"coordinates": [-0.111183,51.593029],"type":"Point"},"properties":{"Address":"N80JX","name":"takatomo","hfrecnum":"","Event":"Lordship Hub","fldsize":"6.3","fldtype":"fixed","id":"","_umap_options":{"showLabel": 0}}},
{"type": "Feature","geometry":{"coordinates": [-0.111183,51.593029],"type":"Point"},"properties":{"Address":"N80JX","name":"takatomo","hfrecnum":"","Event":"Lordship Hub","fldsize":"6.3","fldtype":"fixed","id":"","_umap_options":{"showLabel": 0}}},
{"type": "Feature","geometry":{"coordinates": [-0.121483,51.588395],"type":"Point"},"properties":{"Address":"N87PJ","name":"Andrew","hfrecnum":"2360","Event":"Lordship Hub","fldsize":"6.3","fldtype":"diagnosed","id":"2360","_umap_options":{"showLabel": 0}}},
{"type": "Feature","geometry":{"coordinates": [-0.097823,51.600412],"type":"Point"},"properties":{"Address":"N225EA","name":"Cristina","hfrecnum":"2362","Event":"Lordship Hub","fldsize":"6.3","fldtype":"diagnosed","id":"2362","_umap_options":{"showLabel": 0}}},
{"type": "Feature","geometry":{"coordinates": [-0.087004,51.592251],"type":"Point"},"properties":{"Address":"N176NU","name":"Christine","hfrecnum":"","Event":"Lordship Hub","fldsize":"6.3","fldtype":"partial fix","id":"","_umap_options":{"showLabel": 0}}},
{"type": "Feature","geometry":{"coordinates": [-0.087004,51.592251],"type":"Point"},"properties":{"Address":"N176NU","name":"Aurea","hfrecnum":"","Event":"Lordship Hub","fldsize":"6.3","fldtype":"fixed","id":"","_umap_options":{"showLabel": 0}}},
{"type": "Feature","geometry":{"coordinates": [-0.124846,51.590101],"type":"Point"},"properties":{"Address":"N87LY","name":"internal","hfrecnum":"2328","Event":"Broadwater Farm","fldsize":"6.3","fldtype":"diagnosed","id":"2328","_umap_options":{"showLabel": 0}}},
{"type": "Feature","geometry":{"coordinates": [-0.103214,51.594051],"type":"Point"},"properties":{"Address":"N226PP","name":"Fatna","hfrecnum":"2329","Event":"Broadwater Farm","fldsize":"6.3","fldtype":"fixed","id":"2329","_umap_options":{"showLabel": 0}}},
{"type": "Feature","geometry":{"coordinates": [-0.079197,51.563419],"type":"Point"},"properties":{"Address":"N160AJ","name":"Lorna","hfrecnum":"2333","Event":"Broadwater Farm","fldsize":"6.3","fldtype":"fixed","id":"2333","_umap_options":{"showLabel": 0}}},
{"type": "Feature","geometry":{"coordinates": [-0.077791,51.589989],"type":"Point"},"properties":{"Address":"N176TT","name":"Lisa","hfrecnum":"2335","Event":"Broadwater Farm","fldsize":"6.3","fldtype":"Unable to fix","id":"2335","_umap_options":{"showLabel": 0}}},
{"type": "Feature","geometry":{"coordinates": [-0.074142,51.592553],"type":"Point"},"properties":{"Address":"N176YJ","name":"Coral","hfrecnum":"2336","Event":"Broadwater Farm","fldsize":"6.3","fldtype":"fixed","id":"2336","_umap_options":{"showLabel": 0}}},
{"type": "Feature","geometry":{"coordinates": [-0.074142,51.592553],"type":"Point"},"properties":{"Address":"N176YJ","name":"Coral","hfrecnum":"2337","Event":"Broadwater Farm","fldsize":"6.3","fldtype":"fixed","id":"2337","_umap_options":{"showLabel": 0}}},
{"type": "Feature","geometry":{"coordinates": [-0.0776,51.591018],"type":"Point"},"properties":{"Address":"N176TU","name":"Finlay","hfrecnum":"2338","Event":"Broadwater Farm","fldsize":"6.3","fldtype":"fixed","id":"2338","_umap_options":{"showLabel": 0}}},
{"type": "Feature","geometry":{"coordinates": [-0.100401,51.601365],"type":"Point"},"properties":{"Address":"N225QB","name":"Katherine","hfrecnum":"2339","Event":"Broadwater Farm","fldsize":"6.3","fldtype":"Unable to fix","id":"2339","_umap_options":{"showLabel": 0}}},
{"type": "Feature","geometry":{"coordinates": [-0.100401,51.601365],"type":"Point"},"properties":{"Address":"N225QB","name":"Katherine","hfrecnum":"2340","Event":"Broadwater Farm","fldsize":"6.3","fldtype":"diagnosed","id":"2340","_umap_options":{"showLabel": 0}}},
{"type": "Feature","geometry":{"coordinates": [-0.09218,51.60068],"type":"Point"},"properties":{"Address":"N177HB","name":"mariam","hfrecnum":"2342","Event":"Broadwater Farm","fldsize":"6.3","fldtype":"diagnosed","id":"2342","_umap_options":{"showLabel": 0}}},
{"type": "Feature","geometry":{"coordinates": [-0.115561,51.58979],"type":"Point"},"properties":{"Address":"N87RF","name":"Queenie","hfrecnum":"2344","Event":"Broadwater Farm","fldsize":"6.3","fldtype":"observer1","id":"2344","_umap_options":{"showLabel": 0}}},
{"type": "Feature","geometry":{"coordinates": [-0.126668,51.580886],"type":"Point"},"properties":{"Address":"N88TJ","name":"Sharon","hfrecnum":"2311","Event":"All Good Bookshop","fldsize":"6.3","fldtype":"fixed","id":"2311","_umap_options":{"showLabel": 0}}},
{"type": "Feature","geometry":{"coordinates": [-0.098055,51.581046],"type":"Point"},"properties":{"Address":"N41LB","name":"Alexandra","hfrecnum":"2313","Event":"All Good Bookshop","fldsize":"6.3","fldtype":"Self-repair","id":"2313","_umap_options":{"showLabel": 0}}},
{"type": "Feature","geometry":{"coordinates": [-0.107075,51.587316],"type":"Point"},"properties":{"Address":"N80HT","name":"Elaine","hfrecnum":"2314","Event":"All Good Bookshop","fldsize":"6.3","fldtype":"fixed","id":"2314","_umap_options":{"showLabel": 0}}},
{"type": "Feature","geometry":{"coordinates": [-0.099965,51.587488],"type":"Point"},"properties":{"Address":"N153DD","name":"Adham","hfrecnum":"2315","Event":"All Good Bookshop","fldsize":"6.3","fldtype":"diagnosed","id":"2315","_umap_options":{"showLabel": 0}}},
{"type": "Feature","geometry":{"coordinates": [-0.094718,51.598005],"type":"Point"},"properties":{"Address":"N225DJ","name":"Christelle","hfrecnum":"2316","Event":"All Good Bookshop","fldsize":"6.3","fldtype":"Beyond Repair","id":"2316","_umap_options":{"showLabel": 0}}},
{"type": "Feature","geometry":{"coordinates": [-0.096237,51.593878],"type":"Point"},"properties":{"Address":"N226QS","name":"Jade","hfrecnum":"2318","Event":"All Good Bookshop","fldsize":"6.3","fldtype":"fixed","id":"2318","_umap_options":{"showLabel": 0}}},
{"type": "Feature","geometry":{"coordinates": [-0.114396,51.607127],"type":"Point"},"properties":{"Address":"N228RF","name":"Gustavo","hfrecnum":"2321","Event":"All Good Bookshop","fldsize":"6.3","fldtype":"Self-repair","id":"2321","_umap_options":{"showLabel": 0}}},
{"type": "Feature","geometry":{"coordinates": [-0.117976,51.578516],"type":"Point"},"properties":{"Address":"N89HR","name":"Erica","hfrecnum":"2322","Event":"All Good Bookshop","fldsize":"6.3","fldtype":"fixed","id":"2322","_umap_options":{"showLabel": 0}}},
{"type": "Feature","geometry":{"coordinates": [-0.015877,51.626257],"type":"Point"},"properties":{"Address":"E48BS","name":"Rafiq","hfrecnum":"2323","Event":"All Good Bookshop","fldsize":"6.3","fldtype":"Beyond Repair","id":"2323","_umap_options":{"showLabel": 0}}},
{"type": "Feature","geometry":{"coordinates": [-0.015877,51.626257],"type":"Point"},"properties":{"Address":"E48BS","name":"Rafiq","hfrecnum":"2324","Event":"All Good Bookshop","fldsize":"6.3","fldtype":"Beyond Repair","id":"2324","_umap_options":{"showLabel": 0}}},
{"type": "Feature","geometry":{"coordinates": [-0.064134,51.596354],"type":"Point"},"properties":{"Address":"N179RS","name":"Maud","hfrecnum":"2325","Event":"All Good Bookshop","fldsize":"6.3","fldtype":"fixed","id":"2325","_umap_options":{"showLabel": 0}}},
{"type": "Feature","geometry":{"coordinates": [-0.084505,51.595717],"type":"Point"},"properties":{"Address":"N176HG","name":"Filiz","hfrecnum":"2293","Event":"Campsbourne","fldsize":"6.3","fldtype":"Beyond Repair","id":"2293","_umap_options":{"showLabel": 0}}},
{"type": "Feature","geometry":{"coordinates": [-0.126415,51.589146],"type":"Point"},"properties":{"Address":"N87ND","name":"Jude","hfrecnum":"2295","Event":"Campsbourne","fldsize":"6.3","fldtype":"fixed","id":"2295","_umap_options":{"showLabel": 0}}},
{"type": "Feature","geometry":{"coordinates": [-0.121616,51.589728],"type":"Point"},"properties":{"Address":"N87AD","name":"Steve","hfrecnum":"2296","Event":"Campsbourne","fldsize":"6.3","fldtype":"diagnosed","id":"2296","_umap_options":{"showLabel": 0}}},
{"type": "Feature","geometry":{"coordinates": [-0.119059,51.590128],"type":"Point"},"properties":{"Address":"N87BD","name":"Tonie","hfrecnum":"2298","Event":"Campsbourne","fldsize":"6.3","fldtype":"diagnosed","id":"2298","_umap_options":{"showLabel": 0}}},
{"type": "Feature","geometry":{"coordinates": [-0.124917,51.589502],"type":"Point"},"properties":{"Address":"N87NE","name":"Jo-an","hfrecnum":"2299","Event":"Campsbourne","fldsize":"6.3","fldtype":"Unable to fix","id":"2299","_umap_options":{"showLabel": 0}}},
{"type": "Feature","geometry":{"coordinates": [-0.123653,51.588286],"type":"Point"},"properties":{"Address":"N87RA","name":"Emerson","hfrecnum":"2301","Event":"Campsbourne","fldsize":"6.3","fldtype":"fixed","id":"2301","_umap_options":{"showLabel": 0}}},
{"type": "Feature","geometry":{"coordinates": [-0.084505,51.595717],"type":"Point"},"properties":{"Address":"N176HG","name":"lee","hfrecnum":"2302","Event":"Campsbourne","fldsize":"6.3","fldtype":"Unable to fix","id":"2302","_umap_options":{"showLabel": 0}}},
{"type": "Feature","geometry":{"coordinates": [-0.126415,51.589146],"type":"Point"},"properties":{"Address":"N87ND","name":"Jude","hfrecnum":"2308","Event":"Campsbourne","fldsize":"6.3","fldtype":"Self-repair","id":"2308","_umap_options":{"showLabel": 0}}},
{"type": "Feature","geometry":{"coordinates": [-0.121616,51.589728],"type":"Point"},"properties":{"Address":"N87AD","name":"Anna","hfrecnum":"2309","Event":"Campsbourne","fldsize":"6.3","fldtype":"diagnosed","id":"2309","_umap_options":{"showLabel": 0}}},
{"type": "Feature","geometry":{"coordinates": [-0.121616,51.589728],"type":"Point"},"properties":{"Address":"N87AD","name":"Paulette","hfrecnum":"2310","Event":"Campsbourne","fldsize":"6.3","fldtype":"fixed","id":"2310","_umap_options":{"showLabel": 0}}},
{"type": "Feature","geometry":{"coordinates": [-0.124846,51.590101],"type":"Point"},"properties":{"Address":"N87LY","name":"Janet","hfrecnum":"2303","Event":"Campsbourne","fldsize":"6.3","fldtype":"Beyond Repair","id":"2303","_umap_options":{"showLabel": 0}}},
{"type": "Feature","geometry":{"coordinates": [-0.084505,51.595717],"type":"Point"},"properties":{"Address":"N176HG","name":"Naomi","hfrecnum":"2300","Event":"Campsbourne","fldsize":"6.3","fldtype":"attended1","id":"2300","_umap_options":{"showLabel": 0}}},
{"type": "Feature","geometry":{"coordinates": [-0.084505,51.595717],"type":"Point"},"properties":{"Address":"N176HG","name":"Jay","hfrecnum":"2275","Event":"Lordship Hub","fldsize":"6.3","fldtype":"fixed","id":"2275","_umap_options":{"showLabel": 0}}},
{"type": "Feature","geometry":{"coordinates": [-0.079197,51.563419],"type":"Point"},"properties":{"Address":"N160AJ","name":"Lorna","hfrecnum":"2280","Event":"Lordship Hub","fldsize":"6.3","fldtype":"diagnosed","id":"2280","_umap_options":{"showLabel": 0}}},
{"type": "Feature","geometry":{"coordinates": [-0.068724,51.564048],"type":"Point"},"properties":{"Address":"N167AB","name":"Yasmin","hfrecnum":"2282","Event":"Lordship Hub","fldsize":"6.3","fldtype":"fixed","id":"2282","_umap_options":{"showLabel": 0}}},
{"type": "Feature","geometry":{"coordinates": [-0.079971,51.574502],"type":"Point"},"properties":{"Address":"N165DL","name":"mahandra","hfrecnum":"2283","Event":"Lordship Hub","fldsize":"6.3","fldtype":"diagnosed","id":"2283","_umap_options":{"showLabel": 0}}},
{"type": "Feature","geometry":{"coordinates": [-0.083081,51.589768],"type":"Point"},"properties":{"Address":"N176DB","name":"Tetiana","hfrecnum":"2284","Event":"Lordship Hub","fldsize":"6.3","fldtype":"fixed","id":"2284","_umap_options":{"showLabel": 0}}},
{"type": "Feature","geometry":{"coordinates": [-0.080831,51.592197],"type":"Point"},"properties":{"Address":"N176BZ","name":"Chloe","hfrecnum":"2285","Event":"Lordship Hub","fldsize":"6.3","fldtype":"fixed","id":"2285","_umap_options":{"showLabel": 0}}},
{"type": "Feature","geometry":{"coordinates": [-0.126046,51.60163],"type":"Point"},"properties":{"Address":"N227RX","name":"Laura","hfrecnum":"2286","Event":"Lordship Hub","fldsize":"6.3","fldtype":"fixed","id":"2286","_umap_options":{"showLabel": 0}}},
{"type": "Feature","geometry":{"coordinates": [-0.134863,51.554533],"type":"Point"},"properties":{"Address":"N70RH","name":"Assia","hfrecnum":"2287","Event":"Lordship Hub","fldsize":"6.3","fldtype":"fixed","id":"2287","_umap_options":{"showLabel": 0}}},
{"type": "Feature","geometry":{"coordinates": [-0.102917,51.596672],"type":"Point"},"properties":{"Address":"N226PD","name":"Pam","hfrecnum":"2288","Event":"Lordship Hub","fldsize":"6.3","fldtype":"partial fix","id":"2288","_umap_options":{"showLabel": 0}}},
{"type": "Feature","geometry":{"coordinates": [-0.077673,51.594843],"type":"Point"},"properties":{"Address":"N176HJ","name":"Marie","hfrecnum":"2289","Event":"Lordship Hub","fldsize":"6.3","fldtype":"Unable to fix","id":"2289","_umap_options":{"showLabel": 0}}},
{"type": "Feature","geometry":{"coordinates": [-0.097586,51.594671],"type":"Point"},"properties":{"Address":"N226SE","name":"Dipo","hfrecnum":"2290","Event":"Lordship Hub","fldsize":"6.3","fldtype":"attended1","id":"2290","_umap_options":{"showLabel": 0}}},
{"type": "Feature","geometry":{"coordinates": [-0.097586,51.594671],"type":"Point"},"properties":{"Address":"N226SE","name":"Dipo","hfrecnum":"2291","Event":"Lordship Hub","fldsize":"6.3","fldtype":"fixed","id":"2291","_umap_options":{"showLabel": 0}}},
{"type": "Feature","geometry":{"coordinates": [-0.145199,51.555842],"type":"Point"},"properties":{"Address":"NW51BL","name":"Cleo","hfrecnum":"2292","Event":"Lordship Hub","fldsize":"6.3","fldtype":"attended1","id":"2292","_umap_options":{"showLabel": 0}}},
{"type": "Feature","geometry":{"coordinates": [-0.084505,51.595717],"type":"Point"},"properties":{"Address":"N176HG","name":"","hfrecnum":"2252","Event":"Broadwater Farm","fldsize":"6.3","fldtype":"Beyond Repair","id":"2252","_umap_options":{"showLabel": 0}}},
{"type": "Feature","geometry":{"coordinates": [-0.057938,51.583212],"type":"Point"},"properties":{"Address":"N179PW","name":"Quentin","hfrecnum":"2253","Event":"Broadwater Farm","fldsize":"6.3","fldtype":"fixed","id":"2253","_umap_options":{"showLabel": 0}}},
{"type": "Feature","geometry":{"coordinates": [-0.057938,51.583212],"type":"Point"},"properties":{"Address":"N179PW","name":"Quentin","hfrecnum":"2254","Event":"Broadwater Farm","fldsize":"6.3","fldtype":"diagnosed","id":"2254","_umap_options":{"showLabel": 0}}},
{"type": "Feature","geometry":{"coordinates": [-0.116866,51.443943],"type":"Point"},"properties":{"Address":"SW23QR","name":"Sam","hfrecnum":"2255","Event":"Broadwater Farm","fldsize":"6.3","fldtype":"fixed","id":"2255","_umap_options":{"showLabel": 0}}},
{"type": "Feature","geometry":{"coordinates": [-0.115983,51.577921],"type":"Point"},"properties":{"Address":"N89SA","name":"Carmina","hfrecnum":"2256","Event":"Broadwater Farm","fldsize":"6.3","fldtype":"partial fix","id":"2256","_umap_options":{"showLabel": 0}}},
{"type": "Feature","geometry":{"coordinates": [-0.097329,51.597023],"type":"Point"},"properties":{"Address":"N226JN","name":"Chrystine","hfrecnum":"2257","Event":"Broadwater Farm","fldsize":"6.3","fldtype":"diagnosed","id":"2257","_umap_options":{"showLabel": 0}}},
{"type": "Feature","geometry":{"coordinates": [-0.084505,51.595717],"type":"Point"},"properties":{"Address":"N176HG","name":"Jay","hfrecnum":"2258","Event":"Broadwater Farm","fldsize":"6.3","fldtype":"Unable to fix","id":"2258","_umap_options":{"showLabel": 0}}},
{"type": "Feature","geometry":{"coordinates": [-0.099244,51.589988],"type":"Point"},"properties":{"Address":"N153EJ","name":"Tracy","hfrecnum":"2259","Event":"Broadwater Farm","fldsize":"6.3","fldtype":"fixed later","id":"2259","_umap_options":{"showLabel": 0}}},
{"type": "Feature","geometry":{"coordinates": [-0.122229,51.529953],"type":"Point"},"properties":{"Address":"WC1H8BB","name":"Angel","hfrecnum":"2260","Event":"Broadwater Farm","fldsize":"6.3","fldtype":"REFUSED","id":"2260","_umap_options":{"showLabel": 0}}},
{"type": "Feature","geometry":{"coordinates": [-0.114396,51.607127],"type":"Point"},"properties":{"Address":"N228RF","name":"Gustavo","hfrecnum":"2262","Event":"Broadwater Farm","fldsize":"6.3","fldtype":"diagnosed","id":"2262","_umap_options":{"showLabel": 0}}},
{"type": "Feature","geometry":{"coordinates": [-0.114396,51.607127],"type":"Point"},"properties":{"Address":"N228RF","name":"Gustavo","hfrecnum":"2263","Event":"Broadwater Farm","fldsize":"6.3","fldtype":"Beyond Repair","id":"2263","_umap_options":{"showLabel": 0}}},
{"type": "Feature","geometry":{"coordinates": [-0.097329,51.597023],"type":"Point"},"properties":{"Address":"N226JN","name":"Chrystine","hfrecnum":"2264","Event":"Broadwater Farm","fldsize":"6.3","fldtype":"diagnosed","id":"2264","_umap_options":{"showLabel": 0}}},
{"type": "Feature","geometry":{"coordinates": [-0.078208,51.594733],"type":"Point"},"properties":{"Address":"N176JQ","name":"Camille","hfrecnum":"2266","Event":"Broadwater Farm","fldsize":"6.3","fldtype":"diagnosed","id":"2266","_umap_options":{"showLabel": 0}}},
{"type": "Feature","geometry":{"coordinates": [-0.084505,51.595717],"type":"Point"},"properties":{"Address":"N176HG","name":"Ella","hfrecnum":"2267","Event":"Broadwater Farm","fldsize":"6.3","fldtype":"fixed","id":"2267","_umap_options":{"showLabel": 0}}},
{"type": "Feature","geometry":{"coordinates": [-0.084505,51.595717],"type":"Point"},"properties":{"Address":"N176HG","name":"Ella","hfrecnum":"2268","Event":"Broadwater Farm","fldsize":"6.3","fldtype":"fixed","id":"2268","_umap_options":{"showLabel": 0}}},
{"type": "Feature","geometry":{"coordinates": [-0.084505,51.595717],"type":"Point"},"properties":{"Address":"N176HG","name":"Charles","hfrecnum":"2271","Event":"Broadwater Farm","fldsize":"6.3","fldtype":"fixed","id":"2271","_umap_options":{"showLabel": 0}}},
{"type": "Feature","geometry":{"coordinates": [-0.084505,51.595717],"type":"Point"},"properties":{"Address":"N176HG","name":"Aurea","hfrecnum":"2272","Event":"Broadwater Farm","fldsize":"6.3","fldtype":"fixed","id":"2272","_umap_options":{"showLabel": 0}}},
{"type": "Feature","geometry":{"coordinates": [-0.057938,51.583212],"type":"Point"},"properties":{"Address":"N179PW","name":"Quentin","hfrecnum":"2273","Event":"Broadwater Farm","fldsize":"6.3","fldtype":"Self-repair","id":"2273","_umap_options":{"showLabel": 0}}},
{"type": "Feature","geometry":{"coordinates": [-0.105364,51.589665],"type":"Point"},"properties":{"Address":"N80EP","name":"","hfrecnum":"2232","Event":"All Good Bookshop","fldsize":"6.3","fldtype":"diagnosed","id":"2232","_umap_options":{"showLabel": 0}}},
{"type": "Feature","geometry":{"coordinates": [-0.107383,51.591016],"type":"Point"},"properties":{"Address":"N80QG","name":"Camilla","hfrecnum":"2233","Event":"All Good Bookshop","fldsize":"6.3","fldtype":"fixed","id":"2233","_umap_options":{"showLabel": 0}}},
{"type": "Feature","geometry":{"coordinates": [-0.107383,51.591016],"type":"Point"},"properties":{"Address":"N80QG","name":"Camilla","hfrecnum":"2234","Event":"All Good Bookshop","fldsize":"6.3","fldtype":"fixed","id":"2234","_umap_options":{"showLabel": 0}}},
{"type": "Feature","geometry":{"coordinates": [-0.098303,51.591337],"type":"Point"},"properties":{"Address":"N226AA","name":"Kerry-Ann","hfrecnum":"2236","Event":"All Good Bookshop","fldsize":"6.3","fldtype":"partial fix","id":"2236","_umap_options":{"showLabel": 0}}},
{"type": "Feature","geometry":{"coordinates": [-0.031903,51.575423],"type":"Point"},"properties":{"Address":"E178BW","name":"ALASTAIR","hfrecnum":"2238","Event":"All Good Bookshop","fldsize":"6.3","fldtype":"diagnosed","id":"2238","_umap_options":{"showLabel": 0}}},
{"type": "Feature","geometry":{"coordinates": [-0.031903,51.575423],"type":"Point"},"properties":{"Address":"E178BW","name":"ALASTAIR","hfrecnum":"2239","Event":"All Good Bookshop","fldsize":"6.3","fldtype":"diagnosed","id":"2239","_umap_options":{"showLabel": 0}}},
{"type": "Feature","geometry":{"coordinates": [-0.117478,51.580801],"type":"Point"},"properties":{"Address":"N89BN","name":"Matthew","hfrecnum":"2241","Event":"All Good Bookshop","fldsize":"6.3","fldtype":"Unable to fix","id":"2241","_umap_options":{"showLabel": 0}}},
{"type": "Feature","geometry":{"coordinates": [-0.116647,51.579667],"type":"Point"},"properties":{"Address":"N89SE","name":"Vanessa","hfrecnum":"2242","Event":"All Good Bookshop","fldsize":"6.3","fldtype":"diagnosed","id":"2242","_umap_options":{"showLabel": 0}}},
{"type": "Feature","geometry":{"coordinates": [-0.126046,51.60163],"type":"Point"},"properties":{"Address":"N227RX","name":"Laura","hfrecnum":"2243","Event":"All Good Bookshop","fldsize":"6.3","fldtype":"fixed","id":"2243","_umap_options":{"showLabel": 0}}},
{"type": "Feature","geometry":{"coordinates": [-0.095599,51.585223],"type":"Point"},"properties":{"Address":"N153RQ","name":"Aviva","hfrecnum":"2244","Event":"All Good Bookshop","fldsize":"6.3","fldtype":"unknown","id":"2244","_umap_options":{"showLabel": 0}}},
{"type": "Feature","geometry":{"coordinates": [-0.118368,51.603723],"type":"Point"},"properties":{"Address":"N228DH","name":"Robert","hfrecnum":"2245","Event":"All Good Bookshop","fldsize":"6.3","fldtype":"unknown","id":"2245","_umap_options":{"showLabel": 0}}},
{"type": "Feature","geometry":{"coordinates": [-0.11818,51.600128],"type":"Point"},"properties":{"Address":"N227BY","name":"Andrew","hfrecnum":"2246","Event":"All Good Bookshop","fldsize":"6.3","fldtype":"bringer2fix","id":"2246","_umap_options":{"showLabel": 0}}},
{"type": "Feature","geometry":{"coordinates": [-0.128651,51.578367],"type":"Point"},"properties":{"Address":"N88HT","name":"Pam","hfrecnum":"2247","Event":"All Good Bookshop","fldsize":"6.3","fldtype":"REFUSED","id":"2247","_umap_options":{"showLabel": 0}}},
{"type": "Feature","geometry":{"coordinates": [-0.096599,51.607928],"type":"Point"},"properties":{"Address":"N136AJ","name":"Wai","hfrecnum":"2248","Event":"All Good Bookshop","fldsize":"6.3","fldtype":"Self-repair","id":"2248","_umap_options":{"showLabel": 0}}},
{"type": "Feature","geometry":{"coordinates": [-0.084505,51.595717],"type":"Point"},"properties":{"Address":"N176HG","name":"internal","hfrecnum":"2215","Event":"Lordship Hub","fldsize":"6.3","fldtype":"interim retry","id":"2215","_umap_options":{"showLabel": 0}}},
{"type": "Feature","geometry":{"coordinates": [-0.084505,51.595717],"type":"Point"},"properties":{"Address":"N176HG","name":"internal","hfrecnum":"2216","Event":"Lordship Hub","fldsize":"6.3","fldtype":"Unable to fix","id":"2216","_umap_options":{"showLabel": 0}}},
{"type": "Feature","geometry":{"coordinates": [-0.182152,51.617821],"type":"Point"},"properties":{"Address":"N128RY","name":"Vitali","hfrecnum":"2217","Event":"Lordship Hub","fldsize":"6.3","fldtype":"diagnosed","id":"2217","_umap_options":{"showLabel": 0}}},
{"type": "Feature","geometry":{"coordinates": [-0.107978,51.598229],"type":"Point"},"properties":{"Address":"N225ND","name":"Tania","hfrecnum":"2218","Event":"Lordship Hub","fldsize":"6.3","fldtype":"Self-repair","id":"2218","_umap_options":{"showLabel": 0}}},
{"type": "Feature","geometry":{"coordinates": [-0.055895,51.53773],"type":"Point"},"properties":{"Address":"E97RF","name":"Serena","hfrecnum":"2219","Event":"Lordship Hub","fldsize":"6.3","fldtype":"fixed","id":"2219","_umap_options":{"showLabel": 0}}},
{"type": "Feature","geometry":{"coordinates": [-0.077284,51.553694],"type":"Point"},"properties":{"Address":"N168DL","name":"Tom","hfrecnum":"2220","Event":"Lordship Hub","fldsize":"6.3","fldtype":"fixed","id":"2220","_umap_options":{"showLabel": 0}}},
{"type": "Feature","geometry":{"coordinates": [-0.131643,51.598608],"type":"Point"},"properties":{"Address":"N227BH","name":"Kirsten","hfrecnum":"2221","Event":"Lordship Hub","fldsize":"6.3","fldtype":"diagnosed","id":"2221","_umap_options":{"showLabel": 0}}},
{"type": "Feature","geometry":{"coordinates": [-0.121616,51.589728],"type":"Point"},"properties":{"Address":"N87AD","name":"Anna","hfrecnum":"2222","Event":"Lordship Hub","fldsize":"6.3","fldtype":"Unable to fix","id":"2222","_umap_options":{"showLabel": 0}}},
{"type": "Feature","geometry":{"coordinates": [-0.113438,51.613247],"type":"Point"},"properties":{"Address":"N134NH","name":"Bee-Dwo","hfrecnum":"2224","Event":"Lordship Hub","fldsize":"6.3","fldtype":"diagnosed","id":"2224","_umap_options":{"showLabel": 0}}},
{"type": "Feature","geometry":{"coordinates": [-0.095721,51.574039],"type":"Point"},"properties":{"Address":"N41DH","name":"Annie","hfrecnum":"2225","Event":"Lordship Hub","fldsize":"6.3","fldtype":"fixed","id":"2225","_umap_options":{"showLabel": 0}}},
{"type": "Feature","geometry":{"coordinates": [-0.084505,51.595717],"type":"Point"},"properties":{"Address":"N176HG","name":"Annie","hfrecnum":"2226","Event":"Lordship Hub","fldsize":"6.3","fldtype":"fixed","id":"2226","_umap_options":{"showLabel": 0}}},
{"type": "Feature","geometry":{"coordinates": [-0.102584,51.578406],"type":"Point"},"properties":{"Address":"N41RT","name":"Polly","hfrecnum":"2227","Event":"Lordship Hub","fldsize":"6.3","fldtype":"Unable to fix","id":"2227","_umap_options":{"showLabel": 0}}},
{"type": "Feature","geometry":{"coordinates": [-0.078529,51.5968],"type":"Point"},"properties":{"Address":"N176HD","name":"laure","hfrecnum":"2228","Event":"Lordship Hub","fldsize":"6.3","fldtype":"fixed","id":"2228","_umap_options":{"showLabel": 0}}},
{"type": "Feature","geometry":{"coordinates": [-0.006212,51.580079],"type":"Point"},"properties":{"Address":"E179JD","name":"Richard","hfrecnum":"2229","Event":"Lordship Hub","fldsize":"6.3","fldtype":"","id":"2229","_umap_options":{"showLabel": 0}}},
{"type": "Feature","geometry":{"coordinates": [-0.017426,51.466674],"type":"Point"},"properties":{"Address":"SE137SD","name":"mengting","hfrecnum":"2230","Event":"Lordship Hub","fldsize":"6.3","fldtype":"fixed","id":"2230","_umap_options":{"showLabel": 0}}},
{"type": "Feature","geometry":{"coordinates": [-0.087004,51.592251],"type":"Point"},"properties":{"Address":"N176NU","name":"Bee Moore","hfrecnum":"2231","Event":"Lordship Hub","fldsize":"6.3","fldtype":"fixed","id":"2231","_umap_options":{"showLabel": 0}}},
{"type": "Feature","geometry":{"coordinates": [-0.113312,51.576223],"type":"Point"},"properties":{"Address":"N44HX","name":"Gwyn","hfrecnum":"2192","Event":"Broadwater Farm","fldsize":"6.3","fldtype":"Unable to fix","id":"2192","_umap_options":{"showLabel": 0}}},
{"type": "Feature","geometry":{"coordinates": [-0.079971,51.574502],"type":"Point"},"properties":{"Address":"N165DL","name":"mahandra","hfrecnum":"2193","Event":"Broadwater Farm","fldsize":"6.3","fldtype":"partial fix","id":"2193","_umap_options":{"showLabel": 0}}},
{"type": "Feature","geometry":{"coordinates": [-0.110191,51.6058],"type":"Point"},"properties":{"Address":"N225HX","name":"Sonia","hfrecnum":"2194","Event":"Broadwater Farm","fldsize":"6.3","fldtype":"Unable to fix","id":"2194","_umap_options":{"showLabel": 0}}},
{"type": "Feature","geometry":{"coordinates": [-0.016776,51.584412],"type":"Point"},"properties":{"Address":"E179SE","name":"Lukas","hfrecnum":"2195","Event":"Broadwater Farm","fldsize":"6.3","fldtype":"fixed","id":"2195","_umap_options":{"showLabel": 0}}},
{"type": "Feature","geometry":{"coordinates": [-0.067462,51.596526],"type":"Point"},"properties":{"Address":"N179GB","name":"Beata","hfrecnum":"2197","Event":"Broadwater Farm","fldsize":"6.3","fldtype":"Unable to fix","id":"2197","_umap_options":{"showLabel": 0}}},
{"type": "Feature","geometry":{"coordinates": [-0.055895,51.53773],"type":"Point"},"properties":{"Address":"E97RF","name":"Serena","hfrecnum":"2198","Event":"Broadwater Farm","fldsize":"6.3","fldtype":"fixed","id":"2198","_umap_options":{"showLabel": 0}}},
{"type": "Feature","geometry":{"coordinates": [-0.017426,51.466674],"type":"Point"},"properties":{"Address":"SE137SD","name":"mengting","hfrecnum":"2201","Event":"Broadwater Farm","fldsize":"6.3","fldtype":"partial fix","id":"2201","_umap_options":{"showLabel": 0}}},
{"type": "Feature","geometry":{"coordinates": [-0.083081,51.589768],"type":"Point"},"properties":{"Address":"N176DB","name":"Tetiana","hfrecnum":"2202","Event":"Broadwater Farm","fldsize":"6.3","fldtype":"Unable to fix","id":"2202","_umap_options":{"showLabel": 0}}},
{"type": "Feature","geometry":{"coordinates": [-0.098965,51.602454],"type":"Point"},"properties":{"Address":"N225BN","name":"Scott","hfrecnum":"2203","Event":"Broadwater Farm","fldsize":"6.3","fldtype":"Self-repair","id":"2203","_umap_options":{"showLabel": 0}}},
{"type": "Feature","geometry":{"coordinates": [-0.182152,51.617821],"type":"Point"},"properties":{"Address":"N128RY","name":"Vitali","hfrecnum":"2204","Event":"Broadwater Farm","fldsize":"6.3","fldtype":"partial fix","id":"2204","_umap_options":{"showLabel": 0}}},
{"type": "Feature","geometry":{"coordinates": [-0.087569,51.585336],"type":"Point"},"properties":{"Address":"N155BE","name":"Jess","hfrecnum":"2205","Event":"Broadwater Farm","fldsize":"6.3","fldtype":"diagnosed","id":"2205","_umap_options":{"showLabel": 0}}},
{"type": "Feature","geometry":{"coordinates": [-0.021741,51.621312],"type":"Point"},"properties":{"Address":"E48DY","name":"Norma","hfrecnum":"2209","Event":"Broadwater Farm","fldsize":"6.3","fldtype":"fixed","id":"2209","_umap_options":{"showLabel": 0}}},
{"type": "Feature","geometry":{"coordinates": [-0.133088,51.554892],"type":"Point"},"properties":{"Address":"N70RB","name":"Assia","hfrecnum":"2210","Event":"Broadwater Farm","fldsize":"6.3","fldtype":"diagnosed","id":"2210","_umap_options":{"showLabel": 0}}},
{"type": "Feature","geometry":{"coordinates": [-0.078529,51.5968],"type":"Point"},"properties":{"Address":"N176HD","name":"Laure","hfrecnum":"2211","Event":"Broadwater Farm","fldsize":"6.3","fldtype":"Unable to fix","id":"2211","_umap_options":{"showLabel": 0}}},
{"type": "Feature","geometry":{"coordinates": [-0.087004,51.592251],"type":"Point"},"properties":{"Address":"N176NU","name":"Carola","hfrecnum":"2212","Event":"Broadwater Farm","fldsize":"6.3","fldtype":"fixed","id":"2212","_umap_options":{"showLabel": 0}}},
{"type": "Feature","geometry":{"coordinates": [-0.096643,51.59238],"type":"Point"},"properties":{"Address":"N226AD","name":"Doris","hfrecnum":"2213","Event":"Broadwater Farm","fldsize":"6.3","fldtype":"diagnosed","id":"2213","_umap_options":{"showLabel": 0}}},
{"type": "Feature","geometry":{"coordinates": [-0.084505,51.595717],"type":"Point"},"properties":{"Address":"N176HG","name":"Joanne","hfrecnum":"2214","Event":"Broadwater Farm","fldsize":"6.3","fldtype":"","id":"2214","_umap_options":{"showLabel": 0}}},
{"type": "Feature","geometry":{"coordinates": [-0.086296,51.550343],"type":"Point"},"properties":{"Address":"N14RD","name":"Jasmine","hfrecnum":"2170","Event":"All Good Bookshop","fldsize":"6.3","fldtype":"fixed","id":"2170","_umap_options":{"showLabel": 0}}},
{"type": "Feature","geometry":{"coordinates": [-0.120627,51.608369],"type":"Point"},"properties":{"Address":"N112QS","name":"Tere","hfrecnum":"2171","Event":"All Good Bookshop","fldsize":"6.3","fldtype":"fixed","id":"2171","_umap_options":{"showLabel": 0}}},
{"type": "Feature","geometry":{"coordinates": [-0.120627,51.608369],"type":"Point"},"properties":{"Address":"N112QS","name":"Tere","hfrecnum":"2172","Event":"All Good Bookshop","fldsize":"6.3","fldtype":"Unable to fix","id":"2172","_umap_options":{"showLabel": 0}}},
{"type": "Feature","geometry":{"coordinates": [-0.102134,51.577353],"type":"Point"},"properties":{"Address":"N41RY","name":"Karen","hfrecnum":"2173","Event":"All Good Bookshop","fldsize":"6.3","fldtype":"Unable to fix","id":"2173","_umap_options":{"showLabel": 0}}},
{"type": "Feature","geometry":{"coordinates": [-0.145045,51.587193],"type":"Point"},"properties":{"Address":"N103NE","name":"Josephine","hfrecnum":"2174","Event":"All Good Bookshop","fldsize":"6.3","fldtype":"Unable to fix","id":"2174","_umap_options":{"showLabel": 0}}},
{"type": "Feature","geometry":{"coordinates": [-0.102568,51.592917],"type":"Point"},"properties":{"Address":"N226XT","name":"Lillian","hfrecnum":"2175","Event":"All Good Bookshop","fldsize":"6.3","fldtype":"Unable to fix","id":"2175","_umap_options":{"showLabel": 0}}},
{"type": "Feature","geometry":{"coordinates": [-0.121064,51.584834],"type":"Point"},"properties":{"Address":"N87JR","name":"Jill","hfrecnum":"2176","Event":"All Good Bookshop","fldsize":"6.3","fldtype":"Self-repair","id":"2176","_umap_options":{"showLabel": 0}}},
{"type": "Feature","geometry":{"coordinates": [-0.098303,51.591337],"type":"Point"},"properties":{"Address":"N226AA","name":"Kerry-Ann","hfrecnum":"2177","Event":"All Good Bookshop","fldsize":"6.3","fldtype":"fixed","id":"2177","_umap_options":{"showLabel": 0}}},
{"type": "Feature","geometry":{"coordinates": [-0.128651,51.578367],"type":"Point"},"properties":{"Address":"N88HT","name":"Pam","hfrecnum":"2178","Event":"All Good Bookshop","fldsize":"6.3","fldtype":"fixed","id":"2178","_umap_options":{"showLabel": 0}}},
{"type": "Feature","geometry":{"coordinates": [-0.117976,51.578516],"type":"Point"},"properties":{"Address":"N89HR","name":"ERICA","hfrecnum":"2181","Event":"All Good Bookshop","fldsize":"6.3","fldtype":"Unable to fix","id":"2181","_umap_options":{"showLabel": 0}}},
{"type": "Feature","geometry":{"coordinates": [0.001934,51.572323],"type":"Point"},"properties":{"Address":"E111EY","name":"Dolores","hfrecnum":"2182","Event":"All Good Bookshop","fldsize":"6.3","fldtype":"partial fix","id":"2182","_umap_options":{"showLabel": 0}}},
{"type": "Feature","geometry":{"coordinates": [-0.127538,51.61204],"type":"Point"},"properties":{"Address":"N112LG","name":"Anna","hfrecnum":"2184","Event":"All Good Bookshop","fldsize":"6.3","fldtype":"diagnosed","id":"2184","_umap_options":{"showLabel": 0}}},
{"type": "Feature","geometry":{"coordinates": [-0.115324,51.598053],"type":"Point"},"properties":{"Address":"N227TW","name":"Caroline","hfrecnum":"2185","Event":"All Good Bookshop","fldsize":"6.3","fldtype":"Unable to fix","id":"2185","_umap_options":{"showLabel": 0}}},
{"type": "Feature","geometry":{"coordinates": [-0.099495,51.579738],"type":"Point"},"properties":{"Address":"N41HE","name":"Satish","hfrecnum":"2186","Event":"All Good Bookshop","fldsize":"6.3","fldtype":"Unable to fix","id":"2186","_umap_options":{"showLabel": 0}}},
{"type": "Feature","geometry":{"coordinates": [-0.099495,51.579738],"type":"Point"},"properties":{"Address":"N41HE","name":"Satish","hfrecnum":"2187","Event":"All Good Bookshop","fldsize":"6.3","fldtype":"Unable to fix","id":"2187","_umap_options":{"showLabel": 0}}},
{"type": "Feature","geometry":{"coordinates": [-0.10597,51.586452],"type":"Point"},"properties":{"Address":"N80QT","name":"Melanie","hfrecnum":"2188","Event":"All Good Bookshop","fldsize":"6.3","fldtype":"diagnosed","id":"2188","_umap_options":{"showLabel": 0}}},
{"type": "Feature","geometry":{"coordinates": [-0.099852,51.590904],"type":"Point"},"properties":{"Address":"N153NH","name":"Stephen","hfrecnum":"2189","Event":"All Good Bookshop","fldsize":"6.3","fldtype":"Self-repair","id":"2189","_umap_options":{"showLabel": 0}}},
{"type": "Feature","geometry":{"coordinates": [-0.031903,51.575423],"type":"Point"},"properties":{"Address":"E178BW","name":"Kirsty","hfrecnum":"2191","Event":"All Good Bookshop","fldsize":"6.3","fldtype":"Self-repair","id":"2191","_umap_options":{"showLabel": 0}}},
{"type": "Feature","geometry":{"coordinates": [-0.087004,51.592251],"type":"Point"},"properties":{"Address":"N176NU","name":"Vitali","hfrecnum":"2144","Event":"Lordship Hub","fldsize":"6.3","fldtype":"partial fix","id":"2144","_umap_options":{"showLabel": 0}}},
{"type": "Feature","geometry":{"coordinates": [-0.053906,51.553596],"type":"Point"},"properties":{"Address":"E58TR","name":"Yewande","hfrecnum":"2145","Event":"Lordship Hub","fldsize":"6.3","fldtype":"diagnosed","id":"2145","_umap_options":{"showLabel": 0}}},
{"type": "Feature","geometry":{"coordinates": [-0.053906,51.553596],"type":"Point"},"properties":{"Address":"E58TR","name":"Yewande","hfrecnum":"2146","Event":"Lordship Hub","fldsize":"6.3","fldtype":"fixed","id":"2146","_umap_options":{"showLabel": 0}}},
{"type": "Feature","geometry":{"coordinates": [-0.078331,51.584978],"type":"Point"},"properties":{"Address":"N155DE","name":"M","hfrecnum":"2147","Event":"Lordship Hub","fldsize":"6.3","fldtype":"fixed","id":"2147","_umap_options":{"showLabel": 0}}},
{"type": "Feature","geometry":{"coordinates": [-0.086643,51.58881],"type":"Point"},"properties":{"Address":"N176PN","name":"Kate","hfrecnum":"2148","Event":"Lordship Hub","fldsize":"6.3","fldtype":"Unable to fix","id":"2148","_umap_options":{"showLabel": 0}}},
{"type": "Feature","geometry":{"coordinates": [-0.15058,51.600194],"type":"Point"},"properties":{"Address":"N101AB","name":"Shane","hfrecnum":"2150","Event":"Lordship Hub","fldsize":"6.3","fldtype":"fixed","id":"2150","_umap_options":{"showLabel": 0}}},
{"type": "Feature","geometry":{"coordinates": [-0.081073,51.591857],"type":"Point"},"properties":{"Address":"N176EA","name":"vince","hfrecnum":"2151","Event":"Lordship Hub","fldsize":"6.3","fldtype":"fixed","id":"2151","_umap_options":{"showLabel": 0}}},
{"type": "Feature","geometry":{"coordinates": [-0.078331,51.584978],"type":"Point"},"properties":{"Address":"N155DE","name":"M","hfrecnum":"2152","Event":"Lordship Hub","fldsize":"6.3","fldtype":"fixed","id":"2152","_umap_options":{"showLabel": 0}}},
{"type": "Feature","geometry":{"coordinates": [-0.07222,51.595678],"type":"Point"},"properties":{"Address":"N176UU","name":"Zoe","hfrecnum":"2153","Event":"Lordship Hub","fldsize":"6.3","fldtype":"fixed","id":"2153","_umap_options":{"showLabel": 0}}},
{"type": "Feature","geometry":{"coordinates": [-0.094647,51.602114],"type":"Point"},"properties":{"Address":"N225EH","name":"Shantanu","hfrecnum":"2154","Event":"Lordship Hub","fldsize":"6.3","fldtype":"diagnosed","id":"2154","_umap_options":{"showLabel": 0}}},
{"type": "Feature","geometry":{"coordinates": [-0.077284,51.553694],"type":"Point"},"properties":{"Address":"N168DL","name":"Tom","hfrecnum":"2155","Event":"Lordship Hub","fldsize":"6.3","fldtype":"fixed","id":"2155","_umap_options":{"showLabel": 0}}},
{"type": "Feature","geometry":{"coordinates": [-0.094647,51.602114],"type":"Point"},"properties":{"Address":"N225EH","name":"Shantanu","hfrecnum":"2157","Event":"Lordship Hub","fldsize":"6.3","fldtype":"diagnosed","id":"2157","_umap_options":{"showLabel": 0}}},
{"type": "Feature","geometry":{"coordinates": [-0.110258,51.570785],"type":"Point"},"properties":{"Address":"N43AN","name":"Eleanor","hfrecnum":"2158","Event":"Lordship Hub","fldsize":"6.3","fldtype":"Unable to fix","id":"2158","_umap_options":{"showLabel": 0}}},
{"type": "Feature","geometry":{"coordinates": [-0.016776,51.584412],"type":"Point"},"properties":{"Address":"E179SE","name":"Lukas","hfrecnum":"2159","Event":"Lordship Hub","fldsize":"6.3","fldtype":"partial fix","id":"2159","_umap_options":{"showLabel": 0}}},
{"type": "Feature","geometry":{"coordinates": [-0.09437,51.594601],"type":"Point"},"properties":{"Address":"N226QX","name":"Nik","hfrecnum":"2160","Event":"Lordship Hub","fldsize":"6.3","fldtype":"Unable to fix","id":"2160","_umap_options":{"showLabel": 0}}},
{"type": "Feature","geometry":{"coordinates": [-0.067502,51.545916],"type":"Point"},"properties":{"Address":"E81BZ","name":"Dewi","hfrecnum":"2162","Event":"Lordship Hub","fldsize":"6.3","fldtype":"Unable to fix","id":"2162","_umap_options":{"showLabel": 0}}},
{"type": "Feature","geometry":{"coordinates": [-0.082359,51.58874],"type":"Point"},"properties":{"Address":"N154HJ","name":"Cathy","hfrecnum":"2163","Event":"Lordship Hub","fldsize":"6.3","fldtype":"diagnosed","id":"2163","_umap_options":{"showLabel": 0}}},
{"type": "Feature","geometry":{"coordinates": [-0.090616,51.598721],"type":"Point"},"properties":{"Address":"N177PX","name":"Ruth","hfrecnum":"2164","Event":"Lordship Hub","fldsize":"6.3","fldtype":"Unable to fix","id":"2164","_umap_options":{"showLabel": 0}}},
{"type": "Feature","geometry":{"coordinates": [-0.087004,51.592251],"type":"Point"},"properties":{"Address":"N176NU","name":"Kay Newport","hfrecnum":"2165","Event":"Lordship Hub","fldsize":"6.3","fldtype":"fixed","id":"2165","_umap_options":{"showLabel": 0}}},
{"type": "Feature","geometry":{"coordinates": [-0.201668,51.54019],"type":"Point"},"properties":{"Address":"NW67RJ","name":"Caroline","hfrecnum":"2124","Event":"Broadwater Farm","fldsize":"6.3","fldtype":"","id":"2124","_umap_options":{"showLabel": 0}}},
{"type": "Feature","geometry":{"coordinates": [-0.063016,51.578863],"type":"Point"},"properties":{"Address":"N156BZ","name":"Steven","hfrecnum":"2126","Event":"Broadwater Farm","fldsize":"6.3","fldtype":"fixed","id":"2126","_umap_options":{"showLabel": 0}}},
{"type": "Feature","geometry":{"coordinates": [-0.067011,51.599666],"type":"Point"},"properties":{"Address":"N170AU","name":"Nicola","hfrecnum":"2127","Event":"Broadwater Farm","fldsize":"6.3","fldtype":"fixed","id":"2127","_umap_options":{"showLabel": 0}}},
{"type": "Feature","geometry":{"coordinates": [-0.033093,51.595381],"type":"Point"},"properties":{"Address":"E175RW","name":"Aine","hfrecnum":"2128","Event":"Broadwater Farm","fldsize":"6.3","fldtype":"diagnosed","id":"2128","_umap_options":{"showLabel": 0}}},
{"type": "Feature","geometry":{"coordinates": [-0.097737,51.593912],"type":"Point"},"properties":{"Address":"N226SA","name":"Chloe","hfrecnum":"2129","Event":"Broadwater Farm","fldsize":"6.3","fldtype":"diagnosed","id":"2129","_umap_options":{"showLabel": 0}}},
{"type": "Feature","geometry":{"coordinates": [-0.083266,51.595301],"type":"Point"},"properties":{"Address":"N176LS","name":"Nina","hfrecnum":"2130","Event":"Broadwater Farm","fldsize":"6.3","fldtype":"Unable to fix","id":"2130","_umap_options":{"showLabel": 0}}},
{"type": "Feature","geometry":{"coordinates": [-0.10293,51.579731],"type":"Point"},"properties":{"Address":"N41BG","name":"Martin","hfrecnum":"2131","Event":"Broadwater Farm","fldsize":"6.3","fldtype":"fixed","id":"2131","_umap_options":{"showLabel": 0}}},
{"type": "Feature","geometry":{"coordinates": [-0.054107,51.55772],"type":"Point"},"properties":{"Address":"E50QQ","name":"Freya","hfrecnum":"2132","Event":"Broadwater Farm","fldsize":"6.3","fldtype":"fixed","id":"2132","_umap_options":{"showLabel": 0}}},
{"type": "Feature","geometry":{"coordinates": [-0.054107,51.55772],"type":"Point"},"properties":{"Address":"E50QQ","name":"Freya","hfrecnum":"2133","Event":"Broadwater Farm","fldsize":"6.3","fldtype":"fixed","id":"2133","_umap_options":{"showLabel": 0}}},
{"type": "Feature","geometry":{"coordinates": [-0.075048,51.620651],"type":"Point"},"properties":{"Address":"N99BL","name":"Asim","hfrecnum":"2135","Event":"Broadwater Farm","fldsize":"6.3","fldtype":"diagnosed","id":"2135","_umap_options":{"showLabel": 0}}},
{"type": "Feature","geometry":{"coordinates": [-0.23529,51.532295],"type":"Point"},"properties":{"Address":"NW105NH","name":"Maria","hfrecnum":"2136","Event":"Broadwater Farm","fldsize":"6.3","fldtype":"diagnosed","id":"2136","_umap_options":{"showLabel": 0}}},
{"type": "Feature","geometry":{"coordinates": [-0.080005,51.590806],"type":"Point"},"properties":{"Address":"N176EE","name":"Saskia","hfrecnum":"2137","Event":"Broadwater Farm","fldsize":"6.3","fldtype":"Self-repair","id":"2137","_umap_options":{"showLabel": 0}}},
{"type": "Feature","geometry":{"coordinates": [-0.080005,51.590806],"type":"Point"},"properties":{"Address":"N176EE","name":"Saskia","hfrecnum":"2138","Event":"Broadwater Farm","fldsize":"6.3","fldtype":"diagnosed","id":"2138","_umap_options":{"showLabel": 0}}},
{"type": "Feature","geometry":{"coordinates": [-0.089905,51.601218],"type":"Point"},"properties":{"Address":"N177EG","name":"Friedrich","hfrecnum":"2140","Event":"Broadwater Farm","fldsize":"6.3","fldtype":"fixed","id":"2140","_umap_options":{"showLabel": 0}}},
{"type": "Feature","geometry":{"coordinates": [-0.158661,51.644221],"type":"Point"},"properties":{"Address":"EN48HY","name":"Stephen","hfrecnum":"2141","Event":"Broadwater Farm","fldsize":"6.3","fldtype":"diagnosed","id":"2141","_umap_options":{"showLabel": 0}}},
{"type": "Feature","geometry":{"coordinates": [-0.158661,51.644221],"type":"Point"},"properties":{"Address":"EN48HY","name":"Hristina","hfrecnum":"2142","Event":"Broadwater Farm","fldsize":"6.3","fldtype":"Unable to fix","id":"2142","_umap_options":{"showLabel": 0}}},
{"type": "Feature","geometry":{"coordinates": [-0.129385,51.546362],"type":"Point"},"properties":{"Address":"NW19BT","name":"Lucy","hfrecnum":"2143","Event":"Broadwater Farm","fldsize":"6.3","fldtype":"Unable to fix","id":"2143","_umap_options":{"showLabel": 0}}},
{"type": "Feature","geometry":{"coordinates": [-0.098303,51.591337],"type":"Point"},"properties":{"Address":"N226AA","name":"Kerry-Ann","hfrecnum":"2105","Event":"All Good Bookshop","fldsize":"6.3","fldtype":"fixed","id":"2105","_umap_options":{"showLabel": 0}}},
{"type": "Feature","geometry":{"coordinates": [-0.086296,51.550343],"type":"Point"},"properties":{"Address":"N14RD","name":"Jasmine","hfrecnum":"2106","Event":"All Good Bookshop","fldsize":"6.3","fldtype":"diagnosed","id":"2106","_umap_options":{"showLabel": 0}}},
{"type": "Feature","geometry":{"coordinates": [-0.11879,51.604683],"type":"Point"},"properties":{"Address":"N228PL","name":"Sana","hfrecnum":"2108","Event":"All Good Bookshop","fldsize":"6.3","fldtype":"diagnosed","id":"2108","_umap_options":{"showLabel": 0}}},
{"type": "Feature","geometry":{"coordinates": [-0.102627,51.578692],"type":"Point"},"properties":{"Address":"N41RP","name":"Maren","hfrecnum":"2110","Event":"All Good Bookshop","fldsize":"6.3","fldtype":"fixed","id":"2110","_umap_options":{"showLabel": 0}}},
{"type": "Feature","geometry":{"coordinates": [-0.116346,51.608156],"type":"Point"},"properties":{"Address":"N228NN","name":"rachel","hfrecnum":"2111","Event":"All Good Bookshop","fldsize":"6.3","fldtype":"fixed","id":"2111","_umap_options":{"showLabel": 0}}},
{"type": "Feature","geometry":{"coordinates": [-0.097996,51.594276],"type":"Point"},"properties":{"Address":"N226SD","name":"Bob","hfrecnum":"2112","Event":"All Good Bookshop","fldsize":"6.3","fldtype":"fixed","id":"2112","_umap_options":{"showLabel": 0}}},
{"type": "Feature","geometry":{"coordinates": [-0.125247,51.556844],"type":"Point"},"properties":{"Address":"N70NB","name":"Danielle","hfrecnum":"2113","Event":"All Good Bookshop","fldsize":"6.3","fldtype":"diagnosed","id":"2113","_umap_options":{"showLabel": 0}}},
{"type": "Feature","geometry":{"coordinates": [-0.116346,51.608156],"type":"Point"},"properties":{"Address":"N228NN","name":"Phil","hfrecnum":"2114","Event":"All Good Bookshop","fldsize":"6.3","fldtype":"Unable to fix","id":"2114","_umap_options":{"showLabel": 0}}},
{"type": "Feature","geometry":{"coordinates": [-0.079971,51.574502],"type":"Point"},"properties":{"Address":"N165DL","name":"mahandra","hfrecnum":"2115","Event":"All Good Bookshop","fldsize":"6.3","fldtype":"fixed","id":"2115","_umap_options":{"showLabel": 0}}},
{"type": "Feature","geometry":{"coordinates": [-0.084505,51.595717],"type":"Point"},"properties":{"Address":"N176HG","name":"Internal","hfrecnum":"2116","Event":"All Good Bookshop","fldsize":"6.3","fldtype":"interim retry","id":"2116","_umap_options":{"showLabel": 0}}},
{"type": "Feature","geometry":{"coordinates": [-0.084505,51.595717],"type":"Point"},"properties":{"Address":"N176HG","name":"Internal","hfrecnum":"2117","Event":"All Good Bookshop","fldsize":"6.3","fldtype":"Beyond Repair","id":"2117","_umap_options":{"showLabel": 0}}},
{"type": "Feature","geometry":{"coordinates": [-0.084505,51.595717],"type":"Point"},"properties":{"Address":"N176HG","name":"Tony","hfrecnum":"2119","Event":"All Good Bookshop","fldsize":"6.3","fldtype":"NOT FAULTY","id":"2119","_umap_options":{"showLabel": 0}}},
{"type": "Feature","geometry":{"coordinates": [0.011295,51.542128],"type":"Point"},"properties":{"Address":"E154QP","name":"Christian","hfrecnum":"2120","Event":"All Good Bookshop","fldsize":"6.3","fldtype":"observer1","id":"2120","_umap_options":{"showLabel": 0}}},
{"type": "Feature","geometry":{"coordinates": [-0.103554,51.581036],"type":"Point"},"properties":{"Address":"N41AT","name":"Henry","hfrecnum":"2081","Event":"Lordship Hub","fldsize":"6.3","fldtype":"diagnosed","id":"2081","_umap_options":{"showLabel": 0}}},
{"type": "Feature","geometry":{"coordinates": [-0.06701,51.601743],"type":"Point"},"properties":{"Address":"N170AW","name":"Angella","hfrecnum":"2083","Event":"Lordship Hub","fldsize":"6.3","fldtype":"Unable to fix","id":"2083","_umap_options":{"showLabel": 0}}},
{"type": "Feature","geometry":{"coordinates": [-0.087004,51.592251],"type":"Point"},"properties":{"Address":"N176NU","name":"Nuru","hfrecnum":"2084","Event":"Lordship Hub","fldsize":"6.3","fldtype":"diagnosed","id":"2084","_umap_options":{"showLabel": 0}}},
{"type": "Feature","geometry":{"coordinates": [-0.087004,51.592251],"type":"Point"},"properties":{"Address":"N176NU","name":"Myra","hfrecnum":"2086","Event":"Lordship Hub","fldsize":"6.3","fldtype":"attended1","id":"2086","_umap_options":{"showLabel": 0}}},
{"type": "Feature","geometry":{"coordinates": [-0.087004,51.592251],"type":"Point"},"properties":{"Address":"N176NU","name":"Carola","hfrecnum":"2087","Event":"Lordship Hub","fldsize":"6.3","fldtype":"Unable to fix","id":"2087","_umap_options":{"showLabel": 0}}},
{"type": "Feature","geometry":{"coordinates": [-0.087004,51.592251],"type":"Point"},"properties":{"Address":"N176NU","name":"Carola","hfrecnum":"2088","Event":"Lordship Hub","fldsize":"6.3","fldtype":"fixed","id":"2088","_umap_options":{"showLabel": 0}}},
{"type": "Feature","geometry":{"coordinates": [-0.173253,51.641491],"type":"Point"},"properties":{"Address":"EN51DE","name":"roxana","hfrecnum":"2090","Event":"Lordship Hub","fldsize":"6.3","fldtype":"fixed","id":"2090","_umap_options":{"showLabel": 0}}},
{"type": "Feature","geometry":{"coordinates": [-0.173253,51.641491],"type":"Point"},"properties":{"Address":"EN51DE","name":"roxana","hfrecnum":"2091","Event":"Lordship Hub","fldsize":"6.3","fldtype":"fixed","id":"2091","_umap_options":{"showLabel": 0}}},
{"type": "Feature","geometry":{"coordinates": [-0.173253,51.641491],"type":"Point"},"properties":{"Address":"EN51DE","name":"roxana","hfrecnum":"2092","Event":"Lordship Hub","fldsize":"6.3","fldtype":"diagnosed","id":"2092","_umap_options":{"showLabel": 0}}},
{"type": "Feature","geometry":{"coordinates": [-0.094647,51.602114],"type":"Point"},"properties":{"Address":"N225EH","name":"Shantanu","hfrecnum":"2093","Event":"Lordship Hub","fldsize":"6.3","fldtype":"fixed","id":"2093","_umap_options":{"showLabel": 0}}},
{"type": "Feature","geometry":{"coordinates": [-0.05903,51.590092],"type":"Point"},"properties":{"Address":"N179FQ","name":"Aurea","hfrecnum":"2094","Event":"Lordship Hub","fldsize":"6.3","fldtype":"fixed","id":"2094","_umap_options":{"showLabel": 0}}},
{"type": "Feature","geometry":{"coordinates": [-0.083266,51.595301],"type":"Point"},"properties":{"Address":"N176LS","name":"Nina","hfrecnum":"2096","Event":"Lordship Hub","fldsize":"6.3","fldtype":"attended1","id":"2096","_umap_options":{"showLabel": 0}}},
{"type": "Feature","geometry":{"coordinates": [-0.063016,51.578863],"type":"Point"},"properties":{"Address":"N156BZ","name":"Steven","hfrecnum":"2097","Event":"Lordship Hub","fldsize":"6.3","fldtype":"Unable to fix","id":"2097","_umap_options":{"showLabel": 0}}},
{"type": "Feature","geometry":{"coordinates": [-0.078018,51.595577],"type":"Point"},"properties":{"Address":"N176HH","name":"Patrick","hfrecnum":"2098","Event":"Lordship Hub","fldsize":"6.3","fldtype":"Unable to fix","id":"2098","_umap_options":{"showLabel": 0}}},
{"type": "Feature","geometry":{"coordinates": [-0.096359,51.580856],"type":"Point"},"properties":{"Address":"N41LE","name":"Lizzy","hfrecnum":"2099","Event":"Lordship Hub","fldsize":"6.3","fldtype":"partial fix","id":"2099","_umap_options":{"showLabel": 0}}},
{"type": "Feature","geometry":{"coordinates": [-0.189832,51.605233],"type":"Point"},"properties":{"Address":"N31LH","name":"Neelesh","hfrecnum":"2100","Event":"Lordship Hub","fldsize":"6.3","fldtype":"Self-repair","id":"2100","_umap_options":{"showLabel": 0}}},
{"type": "Feature","geometry":{"coordinates": [-0.086643,51.58881],"type":"Point"},"properties":{"Address":"N176PN","name":"Kate","hfrecnum":"2102","Event":"Lordship Hub","fldsize":"6.3","fldtype":"diagnosed","id":"2102","_umap_options":{"showLabel": 0}}},
{"type": "Feature","geometry":{"coordinates": [-0.087004,51.592251],"type":"Point"},"properties":{"Address":"N176NU","name":"Isha Turay","hfrecnum":"2103","Event":"Lordship Hub","fldsize":"6.3","fldtype":"fixed","id":"2103","_umap_options":{"showLabel": 0}}},
{"type": "Feature","geometry":{"coordinates": [-0.144241,51.597369],"type":"Point"},"properties":{"Address":"N102EH","name":"David","hfrecnum":"2061","Event":"Broadwater Farm","fldsize":"6.3","fldtype":"fixed","id":"2061","_umap_options":{"showLabel": 0}}},
{"type": "Feature","geometry":{"coordinates": [-0.0825,51.594641],"type":"Point"},"properties":{"Address":"N176LP","name":"Glasmie","hfrecnum":"2064","Event":"Broadwater Farm","fldsize":"6.3","fldtype":"fixed","id":"2064","_umap_options":{"showLabel": 0}}},
{"type": "Feature","geometry":{"coordinates": [-0.084505,51.595717],"type":"Point"},"properties":{"Address":"N176HG","name":"Glasmie","hfrecnum":"2065","Event":"Broadwater Farm","fldsize":"6.3","fldtype":"fixed","id":"2065","_umap_options":{"showLabel": 0}}},
{"type": "Feature","geometry":{"coordinates": [-0.099261,51.554214],"type":"Point"},"properties":{"Address":"N51SH","name":"Quentin","hfrecnum":"2066","Event":"Broadwater Farm","fldsize":"6.3","fldtype":"diagnosed","id":"2066","_umap_options":{"showLabel": 0}}},
{"type": "Feature","geometry":{"coordinates": [-0.074052,51.526744],"type":"Point"},"properties":{"Address":"E27LE","name":"Barbara","hfrecnum":"2067","Event":"Broadwater Farm","fldsize":"6.3","fldtype":"diagnosed","id":"2067","_umap_options":{"showLabel": 0}}},
{"type": "Feature","geometry":{"coordinates": [-0.124363,51.568178],"type":"Point"},"properties":{"Address":"N193HS","name":"Hannah","hfrecnum":"2068","Event":"Broadwater Farm","fldsize":"6.3","fldtype":"fixed","id":"2068","_umap_options":{"showLabel": 0}}},
{"type": "Feature","geometry":{"coordinates": [-0.063764,51.593524],"type":"Point"},"properties":{"Address":"N179BG","name":"Rebecca","hfrecnum":"2070","Event":"Broadwater Farm","fldsize":"6.3","fldtype":"fixed","id":"2070","_umap_options":{"showLabel": 0}}},
{"type": "Feature","geometry":{"coordinates": [-0.095936,51.602728],"type":"Point"},"properties":{"Address":"N225EG","name":"Marcus","hfrecnum":"2072","Event":"Broadwater Farm","fldsize":"6.3","fldtype":"Unable to fix","id":"2072","_umap_options":{"showLabel": 0}}},
{"type": "Feature","geometry":{"coordinates": [-0.084505,51.595717],"type":"Point"},"properties":{"Address":"N176HG","name":"Ben","hfrecnum":"2075","Event":"Broadwater Farm","fldsize":"6.3","fldtype":"fixed","id":"2075","_umap_options":{"showLabel": 0}}},
{"type": "Feature","geometry":{"coordinates": [-0.084505,51.595717],"type":"Point"},"properties":{"Address":"N176HG","name":"","hfrecnum":"2076","Event":"Broadwater Farm","fldsize":"6.3","fldtype":"fixed","id":"2076","_umap_options":{"showLabel": 0}}},
{"type": "Feature","geometry":{"coordinates": [-0.105364,51.589665],"type":"Point"},"properties":{"Address":"N80EP","name":"Hannah","hfrecnum":"2037","Event":"All Good Bookshop","fldsize":"6.3","fldtype":"fixed","id":"2037","_umap_options":{"showLabel": 0}}},
{"type": "Feature","geometry":{"coordinates": [-0.108057,51.59085],"type":"Point"},"properties":{"Address":"N80PP","name":"Mary","hfrecnum":"2038","Event":"All Good Bookshop","fldsize":"6.3","fldtype":"Unable to fix","id":"2038","_umap_options":{"showLabel": 0}}},
{"type": "Feature","geometry":{"coordinates": [-0.108057,51.59085],"type":"Point"},"properties":{"Address":"N80PP","name":"Mary","hfrecnum":"2039","Event":"All Good Bookshop","fldsize":"6.3","fldtype":"fixed","id":"2039","_umap_options":{"showLabel": 0}}},
{"type": "Feature","geometry":{"coordinates": [-0.124471,51.591489],"type":"Point"},"properties":{"Address":"N87LL","name":"Joan","hfrecnum":"2040","Event":"All Good Bookshop","fldsize":"6.3","fldtype":"fixed","id":"2040","_umap_options":{"showLabel": 0}}},
{"type": "Feature","geometry":{"coordinates": [-0.130732,51.581409],"type":"Point"},"properties":{"Address":"N88RJ","name":"Fran","hfrecnum":"2041","Event":"All Good Bookshop","fldsize":"6.3","fldtype":"diagnosed","id":"2041","_umap_options":{"showLabel": 0}}},
{"type": "Feature","geometry":{"coordinates": [-0.086296,51.550343],"type":"Point"},"properties":{"Address":"N14RD","name":"Jasmine","hfrecnum":"2042","Event":"All Good Bookshop","fldsize":"6.3","fldtype":"fixed","id":"2042","_umap_options":{"showLabel": 0}}},
{"type": "Feature","geometry":{"coordinates": [-0.096897,51.592594],"type":"Point"},"properties":{"Address":"N226AS","name":"Subi","hfrecnum":"2043","Event":"All Good Bookshop","fldsize":"6.3","fldtype":"fixed","id":"2043","_umap_options":{"showLabel": 0}}},
{"type": "Feature","geometry":{"coordinates": [-0.097329,51.597023],"type":"Point"},"properties":{"Address":"N226JN","name":"Chrystine","hfrecnum":"2044","Event":"All Good Bookshop","fldsize":"6.3","fldtype":"diagnosed","id":"2044","_umap_options":{"showLabel": 0}}},
{"type": "Feature","geometry":{"coordinates": [-0.118635,51.600657],"type":"Point"},"properties":{"Address":"N227DA","name":"Bolu","hfrecnum":"2046","Event":"All Good Bookshop","fldsize":"6.3","fldtype":"diagnosed","id":"2046","_umap_options":{"showLabel": 0}}},
{"type": "Feature","geometry":{"coordinates": [-0.104197,51.583693],"type":"Point"},"properties":{"Address":"N80AJ","name":"Fiona","hfrecnum":"2048","Event":"All Good Bookshop","fldsize":"6.3","fldtype":"fixed","id":"2048","_umap_options":{"showLabel": 0}}},
{"type": "Feature","geometry":{"coordinates": [-0.104197,51.583693],"type":"Point"},"properties":{"Address":"N80AJ","name":"Fiona","hfrecnum":"2049","Event":"All Good Bookshop","fldsize":"6.3","fldtype":"fixed","id":"2049","_umap_options":{"showLabel": 0}}},
{"type": "Feature","geometry":{"coordinates": [-0.117976,51.578516],"type":"Point"},"properties":{"Address":"N89HR","name":"Erica","hfrecnum":"2050","Event":"All Good Bookshop","fldsize":"6.3","fldtype":"fixed","id":"2050","_umap_options":{"showLabel": 0}}},
{"type": "Feature","geometry":{"coordinates": [-0.114899,51.58906],"type":"Point"},"properties":{"Address":"N87QE","name":"Kathryn","hfrecnum":"2053","Event":"All Good Bookshop","fldsize":"6.3","fldtype":"diagnosed","id":"2053","_umap_options":{"showLabel": 0}}},
{"type": "Feature","geometry":{"coordinates": [-0.104419,51.583921],"type":"Point"},"properties":{"Address":"N80AL","name":"Steve","hfrecnum":"2057","Event":"All Good Bookshop","fldsize":"6.3","fldtype":"Self-repair","id":"2057","_umap_options":{"showLabel": 0}}},
{"type": "Feature","geometry":{"coordinates": [-0.083149,51.600137],"type":"Point"},"properties":{"Address":"N177DD","name":"Amelia","hfrecnum":"2022","Event":"Lordship Hub","fldsize":"6.3","fldtype":"fixed","id":"2022","_umap_options":{"showLabel": 0}}},
{"type": "Feature","geometry":{"coordinates": [-0.097329,51.597023],"type":"Point"},"properties":{"Address":"N226JN","name":"Chrystine","hfrecnum":"2023","Event":"Lordship Hub","fldsize":"6.3","fldtype":"diagnosed","id":"2023","_umap_options":{"showLabel": 0}}},
{"type": "Feature","geometry":{"coordinates": [-0.059008,51.595703],"type":"Point"},"properties":{"Address":"N179RJ","name":"Jana","hfrecnum":"2024","Event":"Lordship Hub","fldsize":"6.3","fldtype":"diagnosed","id":"2024","_umap_options":{"showLabel": 0}}},
{"type": "Feature","geometry":{"coordinates": [-0.097329,51.597023],"type":"Point"},"properties":{"Address":"N226JN","name":"Chrystine","hfrecnum":"2025","Event":"Lordship Hub","fldsize":"6.3","fldtype":"diagnosed","id":"2025","_umap_options":{"showLabel": 0}}},
{"type": "Feature","geometry":{"coordinates": [-0.086167,51.58882],"type":"Point"},"properties":{"Address":"N176PP","name":"Leonie","hfrecnum":"2026","Event":"Lordship Hub","fldsize":"6.3","fldtype":"Unable to fix","id":"2026","_umap_options":{"showLabel": 0}}},
{"type": "Feature","geometry":{"coordinates": [-0.154082,51.57864],"type":"Point"},"properties":{"Address":"N64DP","name":"Rona","hfrecnum":"2027","Event":"Lordship Hub","fldsize":"6.3","fldtype":"fixed","id":"2027","_umap_options":{"showLabel": 0}}},
{"type": "Feature","geometry":{"coordinates": [-0.130732,51.581409],"type":"Point"},"properties":{"Address":"N88RJ","name":"Fran","hfrecnum":"2028","Event":"Lordship Hub","fldsize":"6.3","fldtype":"fixed","id":"2028","_umap_options":{"showLabel": 0}}},
{"type": "Feature","geometry":{"coordinates": [-0.059008,51.595703],"type":"Point"},"properties":{"Address":"N179RJ","name":"Jana","hfrecnum":"2029","Event":"Lordship Hub","fldsize":"6.3","fldtype":"fixed","id":"2029","_umap_options":{"showLabel": 0}}},
{"type": "Feature","geometry":{"coordinates": [-0.059008,51.595703],"type":"Point"},"properties":{"Address":"N179RJ","name":"Jana","hfrecnum":"2031","Event":"Lordship Hub","fldsize":"6.3","fldtype":"diagnosed","id":"2031","_umap_options":{"showLabel": 0}}},
{"type": "Feature","geometry":{"coordinates": [-0.078593,51.594589],"type":"Point"},"properties":{"Address":"N176JH","name":"Leila","hfrecnum":"2032","Event":"Lordship Hub","fldsize":"6.3","fldtype":"fixed","id":"2032","_umap_options":{"showLabel": 0}}},
{"type": "Feature","geometry":{"coordinates": [-0.080813,51.590237],"type":"Point"},"properties":{"Address":"N176DX","name":"Imran","hfrecnum":"2016","Event":"Willow School","fldsize":"6.3","fldtype":"fixed","id":"2016","_umap_options":{"showLabel": 0}}},
{"type": "Feature","geometry":{"coordinates": [-0.080813,51.590237],"type":"Point"},"properties":{"Address":"N176DX","name":"Imran","hfrecnum":"2017","Event":"Willow School","fldsize":"6.3","fldtype":"partial fix","id":"2017","_umap_options":{"showLabel": 0}}},
{"type": "Feature","geometry":{"coordinates": [-0.082169,51.596068],"type":"Point"},"properties":{"Address":"N176HW","name":"gladys","hfrecnum":"2018","Event":"Willow School","fldsize":"6.3","fldtype":"fixed","id":"2018","_umap_options":{"showLabel": 0}}},
{"type": "Feature","geometry":{"coordinates": [-0.082169,51.596068],"type":"Point"},"properties":{"Address":"N176HW","name":"gladys","hfrecnum":"2019","Event":"Willow School","fldsize":"6.3","fldtype":"fixed","id":"2019","_umap_options":{"showLabel": 0}}},
{"type": "Feature","geometry":{"coordinates": [-0.082169,51.596068],"type":"Point"},"properties":{"Address":"N176HW","name":"gladys","hfrecnum":"2020","Event":"Willow School","fldsize":"6.3","fldtype":"fixed","id":"2020","_umap_options":{"showLabel": 0}}},
{"type": "Feature","geometry":{"coordinates": [-0.061669,51.596277],"type":"Point"},"properties":{"Address":"N179RT","name":"Jonathan","hfrecnum":"2005","Event":"Broadwater Farm","fldsize":"6.3","fldtype":"fixed","id":"2005","_umap_options":{"showLabel": 0}}},
{"type": "Feature","geometry":{"coordinates": [-0.09641,51.588009],"type":"Point"},"properties":{"Address":"N153PS","name":"Stephanie","hfrecnum":"2006","Event":"Broadwater Farm","fldsize":"6.3","fldtype":"fixed","id":"2006","_umap_options":{"showLabel": 0}}},
{"type": "Feature","geometry":{"coordinates": [-0.155791,51.598819],"type":"Point"},"properties":{"Address":"N101JB","name":"Chris","hfrecnum":"2007","Event":"Broadwater Farm","fldsize":"6.3","fldtype":"fixed","id":"2007","_umap_options":{"showLabel": 0}}},
{"type": "Feature","geometry":{"coordinates": [-0.081517,51.595362],"type":"Point"},"properties":{"Address":"N176HU","name":"Ganna","hfrecnum":"2008","Event":"Broadwater Farm","fldsize":"6.3","fldtype":"partial fix","id":"2008","_umap_options":{"showLabel": 0}}},
{"type": "Feature","geometry":{"coordinates": [-0.074052,51.526744],"type":"Point"},"properties":{"Address":"E27LE","name":"Barbara","hfrecnum":"2009","Event":"Broadwater Farm","fldsize":"6.3","fldtype":"Unable to fix","id":"2009","_umap_options":{"showLabel": 0}}},
{"type": "Feature","geometry":{"coordinates": [-0.097329,51.597023],"type":"Point"},"properties":{"Address":"N226JN","name":"Chrystine","hfrecnum":"2010","Event":"Broadwater Farm","fldsize":"6.3","fldtype":"fixed","id":"2010","_umap_options":{"showLabel": 0}}},
{"type": "Feature","geometry":{"coordinates": [-0.084505,51.595717],"type":"Point"},"properties":{"Address":"N176HG","name":"internal","hfrecnum":"2011","Event":"Broadwater Farm","fldsize":"6.3","fldtype":"","id":"2011","_umap_options":{"showLabel": 0}}},
{"type": "Feature","geometry":{"coordinates": [-0.084505,51.595717],"type":"Point"},"properties":{"Address":"N176HG","name":"Fusion BWF","hfrecnum":"2012","Event":"Broadwater Farm","fldsize":"6.3","fldtype":"fixed","id":"2012","_umap_options":{"showLabel": 0}}},
{"type": "Feature","geometry":{"coordinates": [-0.084505,51.595717],"type":"Point"},"properties":{"Address":"N176HG","name":"Alexia","hfrecnum":"2013","Event":"Broadwater Farm","fldsize":"6.3","fldtype":"Unable to fix","id":"2013","_umap_options":{"showLabel": 0}}},
{"type": "Feature","geometry":{"coordinates": [-0.074052,51.526744],"type":"Point"},"properties":{"Address":"E27LE","name":"barbara","hfrecnum":"1985","Event":"All Good Bookshop","fldsize":"6.3","fldtype":"fixed","id":"1985","_umap_options":{"showLabel": 0}}},
{"type": "Feature","geometry":{"coordinates": [-0.097329,51.597023],"type":"Point"},"properties":{"Address":"N226JN","name":"Hana","hfrecnum":"1990","Event":"All Good Bookshop","fldsize":"6.3","fldtype":"Self-repair","id":"1990","_umap_options":{"showLabel": 0}}},
{"type": "Feature","geometry":{"coordinates": [-0.097329,51.597023],"type":"Point"},"properties":{"Address":"N226JN","name":"Hana","hfrecnum":"1991","Event":"All Good Bookshop","fldsize":"6.3","fldtype":"diagnosed","id":"1991","_umap_options":{"showLabel": 0}}},
{"type": "Feature","geometry":{"coordinates": [-0.121459,51.586192],"type":"Point"},"properties":{"Address":"N87PG","name":"Richard","hfrecnum":"1992","Event":"All Good Bookshop","fldsize":"6.3","fldtype":"diagnosed","id":"1992","_umap_options":{"showLabel": 0}}},
{"type": "Feature","geometry":{"coordinates": [-0.086643,51.58881],"type":"Point"},"properties":{"Address":"N176PN","name":"Kate","hfrecnum":"1994","Event":"All Good Bookshop","fldsize":"6.3","fldtype":"fixed","id":"1994","_umap_options":{"showLabel": 0}}},
{"type": "Feature","geometry":{"coordinates": [-0.140276,51.584226],"type":"Point"},"properties":{"Address":"N103LB","name":"Vivien","hfrecnum":"1995","Event":"All Good Bookshop","fldsize":"6.3","fldtype":"fixed","id":"1995","_umap_options":{"showLabel": 0}}},
{"type": "Feature","geometry":{"coordinates": [-0.116346,51.608156],"type":"Point"},"properties":{"Address":"N228NN","name":"rachel","hfrecnum":"1996","Event":"All Good Bookshop","fldsize":"6.3","fldtype":"Unable to fix","id":"1996","_umap_options":{"showLabel": 0}}},
{"type": "Feature","geometry":{"coordinates": [-0.088578,51.59912],"type":"Point"},"properties":{"Address":"N177PR","name":"Valeria","hfrecnum":"1997","Event":"All Good Bookshop","fldsize":"6.3","fldtype":"fixed","id":"1997","_umap_options":{"showLabel": 0}}},
{"type": "Feature","geometry":{"coordinates": [-0.096928,51.591081],"type":"Point"},"properties":{"Address":"N226AB","name":"Max","hfrecnum":"1998","Event":"All Good Bookshop","fldsize":"6.3","fldtype":"fixed","id":"1998","_umap_options":{"showLabel": 0}}},
{"type": "Feature","geometry":{"coordinates": [-0.105364,51.589665],"type":"Point"},"properties":{"Address":"N80EP","name":"Hayley","hfrecnum":"1999","Event":"All Good Bookshop","fldsize":"6.3","fldtype":"diagnosed","id":"1999","_umap_options":{"showLabel": 0}}},
{"type": "Feature","geometry":{"coordinates": [-0.105364,51.589665],"type":"Point"},"properties":{"Address":"N80EP","name":"Hayley","hfrecnum":"2000","Event":"All Good Bookshop","fldsize":"6.3","fldtype":"diagnosed","id":"2000","_umap_options":{"showLabel": 0}}},
{"type": "Feature","geometry":{"coordinates": [-0.105364,51.589665],"type":"Point"},"properties":{"Address":"N80EP","name":"Chris","hfrecnum":"2001","Event":"All Good Bookshop","fldsize":"6.3","fldtype":"fixed","id":"2001","_umap_options":{"showLabel": 0}}},
{"type": "Feature","geometry":{"coordinates": [-0.105364,51.589665],"type":"Point"},"properties":{"Address":"N80EP","name":"Svetlana","hfrecnum":"2002","Event":"All Good Bookshop","fldsize":"6.3","fldtype":"diagnosed","id":"2002","_umap_options":{"showLabel": 0}}},
{"type": "Feature","geometry":{"coordinates": [-0.084505,51.595717],"type":"Point"},"properties":{"Address":"N176HG","name":"Augustine","hfrecnum":"1965","Event":"Lordship Hub","fldsize":"6.3","fldtype":"Beyond Repair","id":"1965","_umap_options":{"showLabel": 0}}},
{"type": "Feature","geometry":{"coordinates": [-0.084505,51.595717],"type":"Point"},"properties":{"Address":"N176HG","name":"Rose","hfrecnum":"1966","Event":"Lordship Hub","fldsize":"6.3","fldtype":"diagnosed","id":"1966","_umap_options":{"showLabel": 0}}},
{"type": "Feature","geometry":{"coordinates": [-0.087004,51.592251],"type":"Point"},"properties":{"Address":"N176NU","name":"Joao","hfrecnum":"1967","Event":"Lordship Hub","fldsize":"6.3","fldtype":"fixed","id":"1967","_umap_options":{"showLabel": 0}}},
{"type": "Feature","geometry":{"coordinates": [-0.074142,51.592553],"type":"Point"},"properties":{"Address":"N176YJ","name":"Coral","hfrecnum":"1968","Event":"Lordship Hub","fldsize":"6.3","fldtype":"partial fix","id":"1968","_umap_options":{"showLabel": 0}}},
{"type": "Feature","geometry":{"coordinates": [-0.08594,51.591118],"type":"Point"},"properties":{"Address":"N176LJ","name":"Chris","hfrecnum":"1969","Event":"Lordship Hub","fldsize":"6.3","fldtype":"fixed","id":"1969","_umap_options":{"showLabel": 0}}},
{"type": "Feature","geometry":{"coordinates": [-0.0895,51.57784],"type":"Point"},"properties":{"Address":"N41PD","name":"SUE","hfrecnum":"1970","Event":"Lordship Hub","fldsize":"6.3","fldtype":"Unable to fix","id":"1970","_umap_options":{"showLabel": 0}}},
{"type": "Feature","geometry":{"coordinates": [-0.097329,51.597023],"type":"Point"},"properties":{"Address":"N226JN","name":"Chrystine","hfrecnum":"1971","Event":"Lordship Hub","fldsize":"6.3","fldtype":"partial fix","id":"1971","_umap_options":{"showLabel": 0}}},
{"type": "Feature","geometry":{"coordinates": [-0.089502,51.617713],"type":"Point"},"properties":{"Address":"N135EA","name":"Lorraine","hfrecnum":"1972","Event":"Lordship Hub","fldsize":"6.3","fldtype":"fixed","id":"1972","_umap_options":{"showLabel": 0}}},
{"type": "Feature","geometry":{"coordinates": [-0.0895,51.57784],"type":"Point"},"properties":{"Address":"N41PD","name":"SUE","hfrecnum":"1973","Event":"Lordship Hub","fldsize":"6.3","fldtype":"Unable to fix","id":"1973","_umap_options":{"showLabel": 0}}},
{"type": "Feature","geometry":{"coordinates": [-0.110963,51.574387],"type":"Point"},"properties":{"Address":"N44QA","name":"Iris","hfrecnum":"1974","Event":"Lordship Hub","fldsize":"6.3","fldtype":"partial fix","id":"1974","_umap_options":{"showLabel": 0}}},
{"type": "Feature","geometry":{"coordinates": [-0.089502,51.617713],"type":"Point"},"properties":{"Address":"N135EA","name":"Lorraine","hfrecnum":"1975","Event":"Lordship Hub","fldsize":"6.3","fldtype":"fixed","id":"1975","_umap_options":{"showLabel": 0}}},
{"type": "Feature","geometry":{"coordinates": [-0.075461,51.595857],"type":"Point"},"properties":{"Address":"N176EP","name":"Penny","hfrecnum":"1976","Event":"Lordship Hub","fldsize":"6.3","fldtype":"Unable to fix","id":"1976","_umap_options":{"showLabel": 0}}},
{"type": "Feature","geometry":{"coordinates": [-0.182152,51.617821],"type":"Point"},"properties":{"Address":"N128RY","name":"Vitali","hfrecnum":"1977","Event":"Lordship Hub","fldsize":"6.3","fldtype":"Unable to fix","id":"1977","_umap_options":{"showLabel": 0}}},
{"type": "Feature","geometry":{"coordinates": [-0.148454,51.587232],"type":"Point"},"properties":{"Address":"N103JA","name":"Vikas","hfrecnum":"1979","Event":"Lordship Hub","fldsize":"6.3","fldtype":"Beyond Repair","id":"1979","_umap_options":{"showLabel": 0}}},
{"type": "Feature","geometry":{"coordinates": [-0.148454,51.587232],"type":"Point"},"properties":{"Address":"N103JA","name":"Priya","hfrecnum":"1980","Event":"Lordship Hub","fldsize":"6.3","fldtype":"fixed","id":"1980","_umap_options":{"showLabel": 0}}},
{"type": "Feature","geometry":{"coordinates": [-0.101884,51.595136],"type":"Point"},"properties":{"Address":"N226QH","name":"Emily","hfrecnum":"1981","Event":"Lordship Hub","fldsize":"6.3","fldtype":"fixed","id":"1981","_umap_options":{"showLabel": 0}}},
{"type": "Feature","geometry":{"coordinates": [-0.076607,51.600257],"type":"Point"},"properties":{"Address":"N177AA","name":"John","hfrecnum":"1982","Event":"Lordship Hub","fldsize":"6.3","fldtype":"we broke it","id":"1982","_umap_options":{"showLabel": 0}}},
{"type": "Feature","geometry":{"coordinates": [-0.185378,51.612628],"type":"Point"},"properties":{"Address":"N128ES","name":"Nicky","hfrecnum":"1950","Event":"Broadwater Farm","fldsize":"6.3","fldtype":"diagnosed","id":"1950","_umap_options":{"showLabel": 0}}},
{"type": "Feature","geometry":{"coordinates": [-0.185378,51.612628],"type":"Point"},"properties":{"Address":"N128ES","name":"Nicky","hfrecnum":"1951","Event":"Broadwater Farm","fldsize":"6.3","fldtype":"diagnosed","id":"1951","_umap_options":{"showLabel": 0}}},
{"type": "Feature","geometry":{"coordinates": [-0.185378,51.612628],"type":"Point"},"properties":{"Address":"N128ES","name":"Nicky","hfrecnum":"1952","Event":"Broadwater Farm","fldsize":"6.3","fldtype":"diagnosed","id":"1952","_umap_options":{"showLabel": 0}}},
{"type": "Feature","geometry":{"coordinates": [-0.074367,51.591666],"type":"Point"},"properties":{"Address":"N176XR","name":"Beryl","hfrecnum":"1953","Event":"Broadwater Farm","fldsize":"6.3","fldtype":"partial fix","id":"1953","_umap_options":{"showLabel": 0}}},
{"type": "Feature","geometry":{"coordinates": [-0.080362,51.59056],"type":"Point"},"properties":{"Address":"N176EB","name":"Paul","hfrecnum":"1954","Event":"Broadwater Farm","fldsize":"6.3","fldtype":"Unable to fix","id":"1954","_umap_options":{"showLabel": 0}}},
{"type": "Feature","geometry":{"coordinates": [-0.081517,51.595362],"type":"Point"},"properties":{"Address":"N176HU","name":"Ganna","hfrecnum":"1956","Event":"Broadwater Farm","fldsize":"6.3","fldtype":"shop repair","id":"1956","_umap_options":{"showLabel": 0}}},
{"type": "Feature","geometry":{"coordinates": [-0.182152,51.617821],"type":"Point"},"properties":{"Address":"N128RY","name":"Vitali","hfrecnum":"1958","Event":"Broadwater Farm","fldsize":"6.3","fldtype":"Unable to fix","id":"1958","_umap_options":{"showLabel": 0}}},
{"type": "Feature","geometry":{"coordinates": [-0.082918,51.575467],"type":"Point"},"properties":{"Address":"N156HA","name":"Sammie","hfrecnum":"1961","Event":"Broadwater Farm","fldsize":"6.3","fldtype":"partial fix","id":"1961","_umap_options":{"showLabel": 0}}},
{"type": "Feature","geometry":{"coordinates": [-0.084505,51.595717],"type":"Point"},"properties":{"Address":"N176HG","name":"Matthew","hfrecnum":"1962","Event":"Broadwater Farm","fldsize":"6.3","fldtype":"Unable to fix","id":"1962","_umap_options":{"showLabel": 0}}},
{"type": "Feature","geometry":{"coordinates": [-0.084505,51.595717],"type":"Point"},"properties":{"Address":"N176HG","name":"Joseph","hfrecnum":"1963","Event":"Broadwater Farm","fldsize":"6.3","fldtype":"fixed","id":"1963","_umap_options":{"showLabel": 0}}},
{"type": "Feature","geometry":{"coordinates": [-0.084505,51.595717],"type":"Point"},"properties":{"Address":"N176HG","name":"Alphanso","hfrecnum":"1964","Event":"Broadwater Farm","fldsize":"6.3","fldtype":"Unable to fix","id":"1964","_umap_options":{"showLabel": 0}}},
{"type": "Feature","geometry":{"coordinates": [-0.134679,51.588372],"type":"Point"},"properties":{"Address":"N103TE","name":"Esther","hfrecnum":"1932","Event":"All Good Bookshop","fldsize":"6.3","fldtype":"fixed","id":"1932","_umap_options":{"showLabel": 0}}},
{"type": "Feature","geometry":{"coordinates": [-0.099852,51.590904],"type":"Point"},"properties":{"Address":"N153NH","name":"Stephen","hfrecnum":"1934","Event":"All Good Bookshop","fldsize":"6.3","fldtype":"fixed","id":"1934","_umap_options":{"showLabel": 0}}},
{"type": "Feature","geometry":{"coordinates": [-0.117976,51.578516],"type":"Point"},"properties":{"Address":"N89HR","name":"Erica","hfrecnum":"1935","Event":"All Good Bookshop","fldsize":"6.3","fldtype":"fixed","id":"1935","_umap_options":{"showLabel": 0}}},
{"type": "Feature","geometry":{"coordinates": [-0.099852,51.590904],"type":"Point"},"properties":{"Address":"N153NH","name":"Stephen","hfrecnum":"1936","Event":"All Good Bookshop","fldsize":"6.3","fldtype":"diagnosed","id":"1936","_umap_options":{"showLabel": 0}}},
{"type": "Feature","geometry":{"coordinates": [-0.135632,51.538188],"type":"Point"},"properties":{"Address":"NW10SE","name":"Christine","hfrecnum":"1938","Event":"All Good Bookshop","fldsize":"6.3","fldtype":"fixed","id":"1938","_umap_options":{"showLabel": 0}}},
{"type": "Feature","geometry":{"coordinates": [-0.096023,51.585437],"type":"Point"},"properties":{"Address":"N153RF","name":"Maite","hfrecnum":"1939","Event":"All Good Bookshop","fldsize":"6.3","fldtype":"fixed","id":"1939","_umap_options":{"showLabel": 0}}},
{"type": "Feature","geometry":{"coordinates": [-0.070753,51.582588],"type":"Point"},"properties":{"Address":"N154NW","name":"pam","hfrecnum":"1940","Event":"All Good Bookshop","fldsize":"6.3","fldtype":"diagnosed","id":"1940","_umap_options":{"showLabel": 0}}},
{"type": "Feature","geometry":{"coordinates": [-0.096643,51.59238],"type":"Point"},"properties":{"Address":"N226AD","name":"David","hfrecnum":"1942","Event":"All Good Bookshop","fldsize":"6.3","fldtype":"fixed","id":"1942","_umap_options":{"showLabel": 0}}},
{"type": "Feature","geometry":{"coordinates": [-0.13146,51.627318],"type":"Point"},"properties":{"Address":"N146DX","name":"Chris","hfrecnum":"1943","Event":"All Good Bookshop","fldsize":"6.3","fldtype":"diagnosed","id":"1943","_umap_options":{"showLabel": 0}}},
{"type": "Feature","geometry":{"coordinates": [-0.128662,51.616321],"type":"Point"},"properties":{"Address":"N111AS","name":"Paula","hfrecnum":"1945","Event":"All Good Bookshop","fldsize":"6.3","fldtype":"diagnosed","id":"1945","_umap_options":{"showLabel": 0}}},
{"type": "Feature","geometry":{"coordinates": [-0.105364,51.589665],"type":"Point"},"properties":{"Address":"N80EP","name":"Adwoa","hfrecnum":"1947","Event":"All Good Bookshop","fldsize":"6.3","fldtype":"Beyond Repair","id":"1947","_umap_options":{"showLabel": 0}}},
{"type": "Feature","geometry":{"coordinates": [-0.162014,51.635366],"type":"Point"},"properties":{"Address":"EN48ED","name":"Maria","hfrecnum":"1948","Event":"All Good Bookshop","fldsize":"6.3","fldtype":"Unable to fix","id":"1948","_umap_options":{"showLabel": 0}}},
{"type": "Feature","geometry":{"coordinates": [-0.123613,51.598633],"type":"Point"},"properties":{"Address":"N227BW","name":"Cathy","hfrecnum":"1949","Event":"All Good Bookshop","fldsize":"6.3","fldtype":"Self-repair","id":"1949","_umap_options":{"showLabel": 0}}},
{"type": "Feature","geometry":{"coordinates": [-0.074642,51.601913],"type":"Point"},"properties":{"Address":"N178AS","name":"","hfrecnum":"4765","Event":"Antwerp Arms","fldsize":"6.3","fldtype":"fixed","id":"4765","_umap_options":{"showLabel": 0}}},
{"type": "Feature","geometry":{"coordinates": [-0.074642,51.601913],"type":"Point"},"properties":{"Address":"N178AS","name":"","hfrecnum":"4766","Event":"Antwerp Arms","fldsize":"6.3","fldtype":"diagnosed","id":"4766","_umap_options":{"showLabel": 0}}},
{"type": "Feature","geometry":{"coordinates": [-0.080831,51.592197],"type":"Point"},"properties":{"Address":"N176BZ","name":"Carnice","hfrecnum":"1916","Event":"Lordship Hub","fldsize":"6.3","fldtype":"volunteer1","id":"1916","_umap_options":{"showLabel": 0}}},
{"type": "Feature","geometry":{"coordinates": [-0.087004,51.592251],"type":"Point"},"properties":{"Address":"N176NU","name":"Nicole","hfrecnum":"1917","Event":"Lordship Hub","fldsize":"6.3","fldtype":"fixed","id":"1917","_umap_options":{"showLabel": 0}}},
{"type": "Feature","geometry":{"coordinates": [-0.093766,51.593853],"type":"Point"},"properties":{"Address":"N226AE","name":"Anthony","hfrecnum":"1918","Event":"Lordship Hub","fldsize":"6.3","fldtype":"fixed","id":"1918","_umap_options":{"showLabel": 0}}},
{"type": "Feature","geometry":{"coordinates": [-0.080526,51.589078],"type":"Point"},"properties":{"Address":"N154HH","name":"Christopher","hfrecnum":"1919","Event":"Lordship Hub","fldsize":"6.3","fldtype":"fixed","id":"1919","_umap_options":{"showLabel": 0}}},
{"type": "Feature","geometry":{"coordinates": [-0.063016,51.578863],"type":"Point"},"properties":{"Address":"N156BZ","name":"Steven","hfrecnum":"1920","Event":"Lordship Hub","fldsize":"6.3","fldtype":"fixed","id":"1920","_umap_options":{"showLabel": 0}}},
{"type": "Feature","geometry":{"coordinates": [-0.114131,51.599899],"type":"Point"},"properties":{"Address":"N22","name":"Sian","hfrecnum":"1921","Event":"Lordship Hub","fldsize":"6.3","fldtype":"diagnosed","id":"1921","_umap_options":{"showLabel": 0}}},
{"type": "Feature","geometry":{"coordinates": [-0.087004,51.592251],"type":"Point"},"properties":{"Address":"N176NU","name":"Abiy","hfrecnum":"1922","Event":"Lordship Hub","fldsize":"6.3","fldtype":"fixed","id":"1922","_umap_options":{"showLabel": 0}}},
{"type": "Feature","geometry":{"coordinates": [-0.067113,51.61053],"type":"Point"},"properties":{"Address":"N182SY","name":"Cara","hfrecnum":"1923","Event":"Lordship Hub","fldsize":"6.3","fldtype":"fixed","id":"1923","_umap_options":{"showLabel": 0}}},
{"type": "Feature","geometry":{"coordinates": [-0.133128,51.57999],"type":"Point"},"properties":{"Address":"N65RG","name":"Nicole","hfrecnum":"1924","Event":"Lordship Hub","fldsize":"6.3","fldtype":"fixed","id":"1924","_umap_options":{"showLabel": 0}}},
{"type": "Feature","geometry":{"coordinates": [-0.049775,51.552738],"type":"Point"},"properties":{"Address":"E50LY","name":"Daniel","hfrecnum":"1925","Event":"Lordship Hub","fldsize":"6.3","fldtype":"NOT FAULTY","id":"1925","_umap_options":{"showLabel": 0}}},
{"type": "Feature","geometry":{"coordinates": [-0.079197,51.563419],"type":"Point"},"properties":{"Address":"N160AJ","name":"Rosie","hfrecnum":"1926","Event":"Lordship Hub","fldsize":"6.3","fldtype":"fixed","id":"1926","_umap_options":{"showLabel": 0}}},
{"type": "Feature","geometry":{"coordinates": [-0.089905,51.601218],"type":"Point"},"properties":{"Address":"N177EG","name":"Larbi","hfrecnum":"1927","Event":"Lordship Hub","fldsize":"6.3","fldtype":"Beyond Repair","id":"1927","_umap_options":{"showLabel": 0}}},
{"type": "Feature","geometry":{"coordinates": [-0.057993,51.588773],"type":"Point"},"properties":{"Address":"N179FF","name":"Yasser","hfrecnum":"1928","Event":"Lordship Hub","fldsize":"6.3","fldtype":"Beyond Repair","id":"1928","_umap_options":{"showLabel": 0}}},
{"type": "Feature","geometry":{"coordinates": [-0.120144,51.574945],"type":"Point"},"properties":{"Address":"N89EL","name":"erin","hfrecnum":"1929","Event":"Lordship Hub","fldsize":"6.3","fldtype":"Beyond Repair","id":"1929","_umap_options":{"showLabel": 0}}},
{"type": "Feature","geometry":{"coordinates": [-0.095721,51.574039],"type":"Point"},"properties":{"Address":"N41DH","name":"Chris","hfrecnum":"1931","Event":"Lordship Hub","fldsize":"6.3","fldtype":"donation","id":"1931","_umap_options":{"showLabel": 0}}},
{"type": "Feature","geometry":{"coordinates": [-0.073298,51.572234],"type":"Point"},"properties":{"Address":"N165RP","name":"James","hfrecnum":"1897","Event":"Broadwater Farm","fldsize":"6.3","fldtype":"Unable to fix","id":"1897","_umap_options":{"showLabel": 0}}},
{"type": "Feature","geometry":{"coordinates": [-0.073298,51.572234],"type":"Point"},"properties":{"Address":"N165RP","name":"James","hfrecnum":"1898","Event":"Broadwater Farm","fldsize":"6.3","fldtype":"fixed","id":"1898","_umap_options":{"showLabel": 0}}},
{"type": "Feature","geometry":{"coordinates": [-0.127538,51.577635],"type":"Point"},"properties":{"Address":"N88EH","name":"rebecca","hfrecnum":"1899","Event":"Broadwater Farm","fldsize":"6.3","fldtype":"fixed","id":"1899","_umap_options":{"showLabel": 0}}},
{"type": "Feature","geometry":{"coordinates": [-0.095138,51.563472],"type":"Point"},"properties":{"Address":"N42HR","name":"Mez","hfrecnum":"1900","Event":"Broadwater Farm","fldsize":"6.3","fldtype":"Unable to fix","id":"1900","_umap_options":{"showLabel": 0}}},
{"type": "Feature","geometry":{"coordinates": [-0.05903,51.590092],"type":"Point"},"properties":{"Address":"N179FQ","name":"Lorna","hfrecnum":"1902","Event":"Broadwater Farm","fldsize":"6.3","fldtype":"diagnosed","id":"1902","_umap_options":{"showLabel": 0}}},
{"type": "Feature","geometry":{"coordinates": [-0.090372,51.599733],"type":"Point"},"properties":{"Address":"N177EU","name":"Owen","hfrecnum":"1903","Event":"Broadwater Farm","fldsize":"6.3","fldtype":"diagnosed","id":"1903","_umap_options":{"showLabel": 0}}},
{"type": "Feature","geometry":{"coordinates": [-0.11054,51.640166],"type":"Point"},"properties":{"Address":"N211JT","name":"Trudi-Joy","hfrecnum":"1904","Event":"Broadwater Farm","fldsize":"6.3","fldtype":"diagnosed","id":"1904","_umap_options":{"showLabel": 0}}},
{"type": "Feature","geometry":{"coordinates": [-0.105242,51.562665],"type":"Point"},"properties":{"Address":"N42QQ","name":"Natasha","hfrecnum":"1905","Event":"Broadwater Farm","fldsize":"6.3","fldtype":"fixed","id":"1905","_umap_options":{"showLabel": 0}}},
{"type": "Feature","geometry":{"coordinates": [-0.073827,51.583285],"type":"Point"},"properties":{"Address":"N155JX","name":"Jenny","hfrecnum":"1907","Event":"Broadwater Farm","fldsize":"6.3","fldtype":"Beyond Repair","id":"1907","_umap_options":{"showLabel": 0}}},
{"type": "Feature","geometry":{"coordinates": [-0.084505,51.595717],"type":"Point"},"properties":{"Address":"N176HG","name":"Naomi","hfrecnum":"1908","Event":"Broadwater Farm","fldsize":"6.3","fldtype":"Beyond Repair","id":"1908","_umap_options":{"showLabel": 0}}},
{"type": "Feature","geometry":{"coordinates": [-0.084505,51.595717],"type":"Point"},"properties":{"Address":"N176HG","name":"Tony","hfrecnum":"1910","Event":"Broadwater Farm","fldsize":"6.3","fldtype":"Beyond Repair","id":"1910","_umap_options":{"showLabel": 0}}},
{"type": "Feature","geometry":{"coordinates": [-0.084505,51.595717],"type":"Point"},"properties":{"Address":"N176HG","name":"Abiy","hfrecnum":"1911","Event":"Broadwater Farm","fldsize":"6.3","fldtype":"fixed","id":"1911","_umap_options":{"showLabel": 0}}},
{"type": "Feature","geometry":{"coordinates": [-0.084505,51.595717],"type":"Point"},"properties":{"Address":"N176HG","name":"Wimbo","hfrecnum":"1912","Event":"Broadwater Farm","fldsize":"6.3","fldtype":"Unable to fix","id":"1912","_umap_options":{"showLabel": 0}}},
{"type": "Feature","geometry":{"coordinates": [-0.099965,51.587488],"type":"Point"},"properties":{"Address":"N153DD","name":"Adham","hfrecnum":"1884","Event":"All Good Bookshop","fldsize":"6.3","fldtype":"Unable to fix","id":"1884","_umap_options":{"showLabel": 0}}},
{"type": "Feature","geometry":{"coordinates": [-0.13496,51.570506],"type":"Point"},"properties":{"Address":"N193TN","name":"Ben","hfrecnum":"1885","Event":"All Good Bookshop","fldsize":"6.3","fldtype":"Unable to fix","id":"1885","_umap_options":{"showLabel": 0}}},
{"type": "Feature","geometry":{"coordinates": [-0.100452,51.576232],"type":"Point"},